Year,P_INCID_NO,ACTUAL_DTE,PRIMARY_STREET_NUM,PRIMARY_STREET_NAME,PRIMARY_CITY,PRIMARY_STATE_CD,PRIMARY_ZIP_CD,PRIMARY_ADDR_NO,LATITUDE,LONGITUDE,IBR_TYPE,IBR_TYPE_DESC
2010,2010000000029,1/1/2010 0:53:00,90,COMMERCIAL ST,Worcester,MA,01608,2002000000802,42.266726,-71.799178,290,Destruction/Damage/Vandalism of Property
2010,2010000000049,1/1/2010 1:37:00,36,HILDA ST,Worcester,MA,01606,2006000002166,42.303901,-71.777954,13A,Aggravated Assault
2010,2010000000053,1/1/2010 1:43:00,68,STAFFORD ST,Worcester,MA,01603,2001000007766,42.240659,-71.843258,13A,Aggravated Assault
2010,2010000000061,1/1/2010 1:59:00,31,MARBLE ST,Worcester,MA,01603,2003000008679,42.24775,-71.826834,90C,Disorderly Conduct
2010,2010000000064,1/1/2010 2:01:00,54,CRYSTAL ST,Worcester,MA,01603,2003000006471,42.245014,-71.822141,13B,Simple Assault
2010,2010000000071,1/1/2010 2:35:00,712,PLEASANT ST,Worcester,MA,01602,2003000008337,42.269835,-71.82566,90D,Driving Under the Influence
2010,2010000000073,1/1/2010 2:36:00,104,HIGHLAND ST,Worcester,MA,01609,2003000002291,42.271316,-71.806507,240,Motor Vehicle Theft
2010,2010000000092,1/1/2010 3:18:00,1,BOARDMAN ST,Worcester,MA,01606,2001000006315,42.29259,-71.805245,13C,Assault - Intimidation
2010,2010000000092,1/1/2010 3:18:00,1,BOARDMAN ST,Worcester,MA,01606,2001000006315,42.29259,-71.805245,90C,Disorderly Conduct
2010,2010000000109,1/1/2010 3:59:00,5,VIEW ST,Worcester,MA,01610,2003000001089,42.24683,-71.795958,23F,Theft from Motor Vehicle
2010,2010000000117,1/1/2010 4:21:00,496,LINCOLN ST,Worcester,MA,01605,2004000008167,42.294592,-71.775105,90C,Disorderly Conduct
2010,2010000000121,1/1/2010 4:46:00,10,JEFFERSON ST,Worcester,MA,01604,2003000001224,42.253478,-71.795641,90C,Disorderly Conduct
2010,2010000000125,1/1/2010 5:45:00,100,MAY ST,Worcester,MA,01602,2003000005149,42.258014,-71.825948,13B,Simple Assault
2010,2010000000125,1/1/2010 5:45:00,100,MAY ST,Worcester,MA,01602,2003000005149,42.258014,-71.825948,90N,Resisting Arrest
2010,2010000000154,1/1/2010 9:13:00,350,GREENWOOD ST,Worcester,MA,01607,2001000004402,42.212222,-71.79612,270,Embezzlement
2010,2010000000164,1/1/2010 10:18:00,5,LOWELL ST,Worcester,MA,01603,2003000001051,42.246952,-71.825958,23H,All Other Thefts
2010,2010000000174,1/1/2010 11:11:00,7,NEPONSET ST,Worcester,MA,01606,2001000008048,42.299748,-71.802286,23C,Shoplifting
2010,2010000000183,1/1/2010 12:07:00,2,WALLER AV,Worcester,MA,01603,2001000004258,42.243651,-71.829747,290,Destruction/Damage/Vandalism of Property
2010,2010000000192,1/1/2010 13:04:00,1,SEWARD ST,Worcester,MA,01604,2001000001662,42.268071,-71.781609,240,Motor Vehicle Theft
2010,2010000000204,1/1/2010 14:10:00,169,VERNON ST,Worcester,MA,01610,2003000003572,42.243185,-71.796813,220,Burglary/Breaking & Entering
2010,2010000000204,1/1/2010 14:10:00,169,VERNON ST,Worcester,MA,01610,2003000003572,42.243185,-71.796813,290,Destruction/Damage/Vandalism of Property
2010,2010000000220,1/1/2010 15:04:00,12,EDGEWORTH ST,Worcester,MA,01605,2003000009532,42.28404,-71.800627,220,Burglary/Breaking & Entering
2010,2010000000221,1/1/2010 15:07:00,96,VERNON ST,Worcester,MA,01610,2001000005596,42.247823,-71.794965,23F,Theft from Motor Vehicle
2010,2010000000243,1/1/2010 17:04:00,15,RUSSELL ST,Worcester,MA,01609,2003000008075,42.262031,-71.814876,13B,Simple Assault
2010,2010000000250,1/1/2010 17:34:00,5,WESBY ST,Worcester,MA,01609,2001000001784,42.26872,-71.805446,23F,Theft from Motor Vehicle
2010,2010000000288,1/1/2010 20:37:00,57,MOUNTAIN ST E,Worcester,MA,01606,2006000000327,42.32242,-71.78954,220,Burglary/Breaking & Entering
2010,2010000000290,1/1/2010 20:48:00,45,CUTLER ST,Worcester,MA,01604,2003000004660,42.254049,-71.786608,290,Destruction/Damage/Vandalism of Property
2010,2010000000293,1/1/2010 21:03:00,63,KING ST,Worcester,MA,01610,2002000001253,42.259737,-71.816453,90C,Disorderly Conduct
2010,2010000000318,1/1/2010 22:51:00,7,VARNEY ST,Worcester,MA,01605,2003000004649,42.296445,-71.780988,290,Destruction/Damage/Vandalism of Property
2010,2010000000363,1/2/2010 2:40:00,141,E CENTRAL ST,WORCESTER,MA,01600,,,,220,Burglary/Breaking & Entering
2010,2010000000363,1/2/2010 2:40:00,141,E CENTRAL ST,WORCESTER,MA,01600,,,,90Z,All Other Offenses
2010,2010000000372,1/2/2010 2:56:00,49,SUFFOLK ST,Worcester,MA,01604,2003000002825,42.258357,-71.786935,13B,Simple Assault
2010,2010000000375,1/2/2010 3:13:00,500,GRAFTON ST,Worcester,MA,01604,2001000009305,42.250422,-71.779667,23C,Shoplifting
2010,2010000000382,1/2/2010 4:02:00,2,WASHINGTON SQ,Worcester,MA,01604,2001000001572,42.261991,-71.794807,13A,Aggravated Assault
2010,2010000000391,1/2/2010 5:30:00,312,BELMONT ST,Worcester,MA,01605,2003000001780,42.273564,-71.765469,23C,Shoplifting
2010,2010000000444,1/2/2010 11:04:00,11,EUCLID AV,Worcester,MA,01610,2003000028344,42.245826,-71.796995,23H,All Other Thefts
2010,2010000000454,1/2/2010 12:08:00,200,FRANKLIN ST,Worcester,MA,01608,2003000005235,42.260078,-71.7957716,220,Burglary/Breaking & Entering
2010,2010000000457,1/2/2010 12:24:00,95,LEEDS ST,Worcester,MA,01606,2001000003200,42.307267,-71.796506,23F,Theft from Motor Vehicle
2010,2010000000477,1/2/2010 13:40:00,101,CANTERBURY ST,Worcester,MA,01603,2001000005278,42.2474042,-71.8165519,240,Motor Vehicle Theft
2010,2010000000481,1/2/2010 13:55:00,95,LEEDS ST,Worcester,MA,01606,2001000003200,42.307267,-71.796506,23F,Theft from Motor Vehicle
2010,2010000000491,1/2/2010 14:23:00,529,LINCOLN ST,WORCESTER,MA,01605,2003000002244,42.294653,-71.77461,23C,Shoplifting
2010,2010000000518,1/2/2010 16:06:00,28,WILLIAMSBERG DR,Worcester,MA,01602,2003000003235,42.256649,-71.85184,23H,All Other Thefts
2010,2010000000531,1/2/2010 16:40:00,157,PROVIDENCE ST,Worcester,MA,01604,2003000014035,42.244769,-71.791374,13A,Aggravated Assault
2010,2010000000535,1/2/2010 16:47:00,17,KANSAS ST,Worcester,MA,01610,2001000006192,42.245522,-71.805474,520,Weapon Law Violation
2010,2010000000535,1/2/2010 16:47:00,17,KANSAS ST,Worcester,MA,01610,2001000006192,42.245522,-71.805474,13A,Aggravated Assault
2010,2010000000551,1/2/2010 17:46:00,32,HAROLD ST,Worcester,MA,01604,2003000011577,42.25654,-71.764783,220,Burglary/Breaking & Entering
2010,2010000000573,1/2/2010 19:26:00,1,TAYLOR ST,Worcester,MA,01610,2001000001538,42.25221,-71.799065,11A,Forcible Rape
2010,2010000000596,1/2/2010 21:10:00,217,BEACON ST,Worcester,MA,01608,2003000005947,42.251183,-71.815309,13A,Aggravated Assault
2010,2010000000597,1/2/2010 21:11:00,68,COUNTRY CLUB BLVD,Worcester,MA,01605,2003000001906,42.298014,-71.775231,13C,Assault - Intimidation
2010,2010000000606,1/2/2010 21:37:00,51,WELLINGTON ST,Worcester,MA,01610,2002000000010,42.259759,-71.808854,13A,Aggravated Assault
2010,2010000000630,1/2/2010 22:51:00,44,OUTLOOK DR,Worcester,MA,01602,2003000001837,42.258276,-71.85171,220,Burglary/Breaking & Entering
2010,2010000000637,1/2/2010 23:21:00,18,CLIFTON ST,Worcester,MA,01610,2003000011342,42.254938,-71.821208,13C,Assault - Intimidation
2010,2010000000671,1/3/2010 1:59:00,124,LOVELL ST,Worcester,MA,01603,2001000003421,42.254535,-71.832404,120,Robbery
2010,2010000000672,1/3/2010 2:02:00,363,PLANTATION ST,Worcester,MA,01605,2003000000513,42.27636,-71.765695,90C,Disorderly Conduct
2010,2010000000672,1/3/2010 2:02:00,363,PLANTATION ST,Worcester,MA,01605,2003000000513,42.27636,-71.765695,90J,Trespass of Real Property
2010,2010000000672,1/3/2010 2:02:00,363,PLANTATION ST,Worcester,MA,01605,2003000000513,42.27636,-71.765695,90N,Resisting Arrest
2010,2010000000681,1/3/2010 2:16:00,24,CLARENDON ST,Worcester,MA,01604,2003000007095,42.259035,-71.779076,26B,Credit Card/Automatic Teller Fraud
2010,2010000000732,1/3/2010 9:18:00,80,INDIAN HILL RD,Worcester,MA,01606,2010000000026,42.277587,-71.803191,23G,Theft of Motor Vehicle Parts
2010,2010000000736,1/3/2010 9:47:00,8,HADWEN RD,Worcester,MA,01602,2003000007647,42.266841,-71.831371,26E,Wire Fraud
2010,2010000000761,1/3/2010 11:24:00,541,LINCOLN ST,Worcester,MA,01605,2003000001132,42.292018,-71.775902,23C,Shoplifting
2010,2010000000778,1/3/2010 12:38:00,66,MAYWOOD ST,Worcester,MA,01603,2003000022245,42.252302,-71.826814,23H,All Other Thefts
2010,2010000000783,1/3/2010 13:00:00,41,DAYTON ST,Worcester,MA,01609,2003000003841,42.268839,-71.811237,26B,Credit Card/Automatic Teller Fraud
2010,2010000000784,1/3/2010 13:16:00,6,GOLDTHWAITE RD,Worcester,MA,01605,2003000009774,42.294347,-71.778145,240,Motor Vehicle Theft
2010,2010000000796,1/3/2010 14:30:00,7,STATE ST,Worcester,MA,01609,2001000007645,42.269762,-71.801668,13A,Aggravated Assault
2010,2010000000839,1/3/2010 17:46:00,9,FIFTH AV,Worcester,MA,01607,2003000010324,42.241458,-71.800772,220,Burglary/Breaking & Entering
2010,2010000000854,1/3/2010 19:16:00,30,OBERLIN ST,Worcester,MA,01610,2003000011387,42.254421,-71.82046,220,Burglary/Breaking & Entering
2010,2010000000861,1/3/2010 20:37:00,1,SYCAMORE ST,Worcester,MA,01608,2001000006207,42.258571,-71.806605,90C,Disorderly Conduct
2010,2010000000875,1/3/2010 21:49:00,55,GATES ST,Worcester,MA,01610,2003000015132,42.24807,-71.820388,120,Robbery
2010,2010000000886,1/3/2010 23:15:00,301,SALISBURY ST,Worcester,MA,01609,2003000004910,42.281118,-71.815721,90D,Driving Under the Influence
2010,2010000000889,1/3/2010 23:27:00,51,WILSON ST,Worcester,MA,01604,2003000007430,42.269923,-71.779801,23F,Theft from Motor Vehicle
2010,2010000000890,1/3/2010 23:37:00,101,CANTERBURY ST,Worcester,MA,01603,2001000005278,42.2474042,-71.8165519,13A,Aggravated Assault
2010,2010000000906,1/4/2010 1:37:00,10,FRUIT ST,Worcester,MA,01609,2002000000051,42.264915,-71.810895,13A,Aggravated Assault
2010,2010000000916,1/4/2010 3:14:00,45,HOLLYWOOD ST,Worcester,MA,01610,2004000004241,42.255198,-71.819375,13A,Aggravated Assault
2010,2010000000942,1/3/2010 9:30:00,202,MAY ST,Worcester,MA,01602,2003000005063,42.262136,-71.834742,23F,Theft from Motor Vehicle
2010,2010000000946,1/4/2010 8:22:00,14,LONGMEADOW AV,Worcester,MA,01606,2004000000556,42.306471,-71.786669,23H,All Other Thefts
2010,2010000000949,1/4/2010 8:29:00,409,SHREWSBURY ST,Worcester,MA,01604,2003000016277,42.271514,-71.774245,220,Burglary/Breaking & Entering
2010,2010000000950,1/4/2010 8:30:00,409,SHREWSBURY ST,Worcester,MA,01604,2003000016277,42.271514,-71.774245,220,Burglary/Breaking & Entering
2010,2010000000963,1/2/2010 12:30:00,687,MILLBURY ST,Worcester,MA,01607,2003000000231,42.238376,-71.797994,23F,Theft from Motor Vehicle
2010,2010000000973,1/3/2010 20:00:00,2,CHESTERFIELD RD,Worcester,MA,01602,2003000024771,42.278941,-71.84875,290,Destruction/Damage/Vandalism of Property
2010,2010000000983,1/3/2010 17:00:00,71,SANTORO RD,Worcester,MA,01606,2004000013412,42.330864,-71.782361,23F,Theft from Motor Vehicle
2010,2010000000985,1/4/2010 10:00:00,221,PARK AV,Worcester,MA,01609,2001000008290,42.270981,-71.8151,23F,Theft from Motor Vehicle
2010,2010000001008,1/3/2010 14:00:00,97,STERLING ST,Worcester,MA,01610,2003000014265,42.24462,-71.798954,290,Destruction/Damage/Vandalism of Property
2010,2010000001013,1/1/2010 0:00:00,128,MAYWOOD ST,Worcester,MA,01603,2001000007726,42.254201,-71.830655,290,Destruction/Damage/Vandalism of Property
2010,2010000001020,1/4/2010 7:55:00,30,MAJOR TAYLOR BLVD,Worcester,MA,01608,2006000002328,42.266814,-71.797704,23F,Theft from Motor Vehicle
2010,2010000001021,1/4/2010 13:39:00,328,PLEASANT ST,Worcester,MA,01609,2001000007426,42.263889,-71.813486,35A,Drug/Narcotic Violations
2010,2010000001032,1/4/2010 14:13:00,463,CHANDLER ST,Worcester,MA,01602,2005000009562,42.266585,-71.83772,220,Burglary/Breaking & Entering
2010,2010000001040,1/4/2010 14:37:00,249,SHREWSBURY ST,Worcester,MA,01604,2003000005143,42.267185,-71.782483,220,Burglary/Breaking & Entering
2010,2010000001045,1/4/2010 14:49:00,176,MORELAND ST,Worcester,MA,01609,2003000005552,42.288899,-71.842883,290,Destruction/Damage/Vandalism of Property
2010,2010000001050,1/4/2010 15:15:00,21,STONELAND RD,Worcester,MA,01603,2004000009698,42.245813,-71.826733,23H,All Other Thefts
2010,2010000001058,1/4/2010 15:36:00,55,PENN AV,Worcester,MA,01604,2003000000484,42.255067,-71.790289,13B,Simple Assault
2010,2010000001058,1/4/2010 15:36:00,55,PENN AV,Worcester,MA,01604,2003000000484,42.255067,-71.790289,90C,Disorderly Conduct
2010,2010000001065,1/1/2010 15:00:00,74,AIRLIE ST,Worcester,MA,01606,2003000003790,42.307406,-71.794953,23F,Theft from Motor Vehicle
2010,2010000001066,1/4/2010 16:01:00,70,CHESTER ST,Worcester,MA,01605,2003000029156,42.305031,-71.827372,13A,Aggravated Assault
2010,2010000001071,1/4/2010 16:23:00,221,PARK AV,Worcester,MA,01609,2001000008290,42.270981,-71.8151,23C,Shoplifting
2010,2010000001074,1/4/2010 16:31:00,24,ELLSWORTH ST,Worcester,MA,01610,2003000001640,42.252251,-71.801313,23G,Theft of Motor Vehicle Parts
2010,2010000001095,1/4/2010 17:43:00,1039,MAIN ST,Worcester,MA,01603,2003000006578,42.245968,-71.829604,13C,Assault - Intimidation
2010,2010000001104,1/4/2010 18:32:00,1,MAJOR TAYLOR BLVD,Worcester,MA,01608,2006000002159,42.266283,-71.798724,35A,Drug/Narcotic Violations
2010,2010000001107,1/4/2010 18:47:00,83,CANTERBURY ST,Worcester,MA,01603,2003000011478,42.2480845,-71.8154755,23F,Theft from Motor Vehicle
2010,2010000001127,1/4/2010 20:22:00,1340,MAIN ST,Worcester,MA,01603,2003000021430,42.241639,-71.849467,120,Robbery
2010,2010000001138,1/4/2010 21:26:00,80,SEYMOUR ST,Worcester,MA,01610,2003000003169,42.248719,-71.795553,220,Burglary/Breaking & Entering
2010,2010000001143,1/4/2010 21:50:00,155,SHREWSBURY ST,Worcester,MA,01604,2001000006605,42.264759,-71.787185,35A,Drug/Narcotic Violations
2010,2010000001143,1/4/2010 21:50:00,155,SHREWSBURY ST,Worcester,MA,01604,2001000006605,42.264759,-71.787185,90G,Liquor Law Violation
2010,2010000001165,1/5/2010 0:37:00,102,GREEN ST,Worcester,MA,01604,2003000001785,42.257579,-71.797767,90C,Disorderly Conduct
2010,2010000001187,1/5/2010 3:24:00,263,GRAFTON ST,Worcester,MA,01604,2003000001495,42.257605,-71.789131,13B,Simple Assault
2010,2010000001206,1/4/2010 15:00:00,324,HIGHLAND ST,Worcester,MA,01609,2003000017864,42.270235,-71.823045,23F,Theft from Motor Vehicle
2010,2010000001209,1/5/2010 8:19:00,8,TALLAWANDA DR,Worcester,MA,01603,2001000003357,42.245237,-71.847625,23G,Theft of Motor Vehicle Parts
2010,2010000001214,1/5/2010 8:32:00,216,MOUNTAIN ST E,Worcester,MA,01606,2003000003427,42.316984,-71.776353,26C,Impersonation
2010,2010000001225,1/5/2010 9:14:00,22,INDIAN HILL RD,Worcester,MA,01606,2003000001473,42.306486,-71.809871,23H,All Other Thefts
2010,2010000001226,1/5/2010 9:24:00,221,PARK AV,Worcester,MA,01609,2001000008290,42.270981,-71.8151,23C,Shoplifting
2010,2010000001227,1/5/2010 9:30:00,123,RODNEY ST,Worcester,MA,01605,2003000023314,42.276759,-71.785342,26C,Impersonation
2010,2010000001234,1/5/2010 10:19:00,648,MAIN ST,Worcester,MA,01608,2001000005150,42.259579,-71.805256,35A,Drug/Narcotic Violations
2010,2010000001243,1/5/2010 11:07:00,23,DELLWOOD RD,Worcester,MA,01602,2004000010538,42.276316,-71.84415,220,Burglary/Breaking & Entering
2010,2010000001256,1/5/2010 12:13:00,35,BARCLAY ST,Worcester,MA,01604,2003000001688,42.253793,-71.788767,13B,Simple Assault
2010,2010000001256,1/5/2010 12:13:00,35,BARCLAY ST,Worcester,MA,01604,2003000001688,42.253793,-71.788767,35A,Drug/Narcotic Violations
2010,2010000001256,1/5/2010 12:13:00,35,BARCLAY ST,Worcester,MA,01604,2003000001688,42.253793,-71.788767,520,Weapon Law Violation
2010,2010000001272,1/5/2010 7:00:00,1350,MAIN ST,Worcester,MA,01603,2003000002861,42.241554,-71.850408,23F,Theft from Motor Vehicle
2010,2010000001272,1/5/2010 7:00:00,1350,MAIN ST,Worcester,MA,01603,2003000002861,42.241554,-71.850408,26B,Credit Card/Automatic Teller Fraud
2010,2010000001281,1/5/2010 13:58:00,15,GRAND ST,Worcester,MA,01610,2005000000408,42.250118,-71.82092,35A,Drug/Narcotic Violations
2010,2010000001281,1/5/2010 13:58:00,15,GRAND ST,Worcester,MA,01610,2005000000408,42.250118,-71.82092,90N,Resisting Arrest
2010,2010000001294,1/5/2010 14:45:00,25,ENDICOTT ST,Worcester,MA,01610,2003000012958,42.250959,-71.80339,13B,Simple Assault
2010,2010000001307,1/4/2010 15:30:00,62,LAKEWOOD ST,Worcester,MA,01603,2003000029037,42.247041,-71.836315,23G,Theft of Motor Vehicle Parts
2010,2010000001313,1/5/2010 15:59:00,224,CHANDLER ST,Worcester,MA,01609,2003000011056,42.260902,-71.819336,23H,All Other Thefts
2010,2010000001331,1/5/2010 17:02:00,41,HARRINGTON WAY,Worcester,MA,01604,2003000018974,42.258761,-71.769877,13C,Assault - Intimidation
2010,2010000001339,1/5/2010 17:29:00,8,SIGOURNEY ST,Worcester,MA,01605,2003000007079,42.283085,-71.80046,13C,Assault - Intimidation
2010,2010000001355,1/5/2010 18:16:00,500,GRAFTON ST,Worcester,MA,01604,2001000009305,42.250422,-71.779667,23C,Shoplifting
2010,2010000001368,1/5/2010 19:12:00,189,TACOMA ST,Worcester,MA,01605,2003000015842,42.306462,-71.773122,90J,Trespass of Real Property
2010,2010000001373,1/5/2010 19:26:00,25,PERKINS ST,Worcester,MA,01605,2003000003221,42.278783,-71.792082,23H,All Other Thefts
2010,2010000001374,1/5/2010 19:31:00,59,HARDING ST,Worcester,MA,01604,2003000016644,42.2597519,-71.7946671,240,Motor Vehicle Theft
2010,2010000001374,1/5/2010 19:31:00,59,HARDING ST,Worcester,MA,01604,2003000016644,42.2597519,-71.7946671,90C,Disorderly Conduct
2010,2010000001374,1/5/2010 19:31:00,59,HARDING ST,Worcester,MA,01604,2003000016644,42.2597519,-71.7946671,90N,Resisting Arrest
2010,2010000001379,1/5/2010 19:55:00,38,CORAL ST,Worcester,MA,01604,2003000000490,42.255719,-71.791964,13B,Simple Assault
2010,2010000001379,1/5/2010 19:55:00,38,CORAL ST,Worcester,MA,01604,2003000000490,42.255719,-71.791964,90C,Disorderly Conduct
2010,2010000001379,1/5/2010 19:55:00,38,CORAL ST,Worcester,MA,01604,2003000000490,42.255719,-71.791964,90N,Resisting Arrest
2010,2010000001389,1/5/2010 20:31:00,43,FREELAND ST,Worcester,MA,01603,2004000000428,42.245006,-71.824694,220,Burglary/Breaking & Entering
2010,2010000001390,1/5/2010 20:35:00,42,CRYSTAL ST,Worcester,MA,01603,2001000002241,42.245633,-71.822447,40A,Prostitution
2010,2010000001392,1/5/2010 20:59:00,2,DOWNING ST,Worcester,MA,01610,2001000004088,42.251389,-71.82124,40A,Prostitution
2010,2010000001408,1/5/2010 22:22:00,183,COUNTRY CLUB BLVD,Worcester,MA,01605,2003000008536,42.301646,-71.776656,240,Motor Vehicle Theft
2010,2010000001414,1/5/2010 23:03:00,159,VERNON ST,Worcester,MA,01610,2003000005350,42.243909,-71.796664,290,Destruction/Damage/Vandalism of Property
2010,2010000001422,1/6/2010 0:06:00,27,HITCHCOCK RD,Worcester,MA,01603,2005000008284,42.245227,-71.82724,13B,Simple Assault
2010,2010000001443,1/6/2010 3:44:00,141,HIGHLAND ST,Worcester,MA,01609,2001000005638,42.270877,-71.808221,90G,Liquor Law Violation
2010,2010000001450,1/6/2010 5:38:00,158,FAIRMONT AV,Worcester,MA,01604,2001000002609,42.254596,-71.779414,220,Burglary/Breaking & Entering
2010,2010000001450,1/6/2010 5:38:00,158,FAIRMONT AV,Worcester,MA,01604,2001000002609,42.254596,-71.779414,13A,Aggravated Assault
2010,2010000001468,1/7/2010 1:30:00,18,GRAFTON ST,Worcester,MA,01604,2003000001361,42.260381,-71.793863,23H,All Other Thefts
2010,2010000001470,1/6/2010 8:14:00,77,TACOMA ST,Worcester,MA,01605,2003000015737,42.305931,-71.76889,23G,Theft of Motor Vehicle Parts
2010,2010000001475,1/6/2010 8:32:00,24,JAQUES AV,Worcester,MA,01610,2003000007046,42.259903,-71.810605,250,Counterfeiting/Forgery
2010,2010000001476,1/5/2010 8:00:00,1,PROSPECT ST,Worcester,MA,01608,2001000000107,42.267543,-71.795025,23G,Theft of Motor Vehicle Parts
2010,2010000001486,1/6/2010 9:43:00,19,LAVALLEE TER,Worcester,MA,01603,2003000009489,42.237072,-71.84989,26C,Impersonation
2010,2010000001500,1/6/2010 10:41:00,25,WOODLAND ST,Worcester,MA,01610,2002000000054,42.257329,-71.816884,23H,All Other Thefts
2010,2010000001501,1/5/2010 17:00:00,38,AMES ST,Worcester,MA,01610,2003000008319,42.242348,-71.793583,23F,Theft from Motor Vehicle
2010,2010000001507,1/6/2010 11:02:00,127,PILGRIM AV,Worcester,MA,01604,2001000003439,42.254954,-71.778515,23H,All Other Thefts
2010,2010000001513,1/6/2010 11:27:00,16,ORIENT ST,Worcester,MA,01604,2003000000237,42.256751,-71.784456,90C,Disorderly Conduct
2010,2010000001513,1/6/2010 11:27:00,16,ORIENT ST,Worcester,MA,01604,2003000000237,42.256751,-71.784456,520,Weapon Law Violation
2010,2010000001513,1/6/2010 11:27:00,16,ORIENT ST,Worcester,MA,01604,2003000000237,42.256751,-71.784456,90N,Resisting Arrest
2010,2010000001514,1/6/2010 11:29:00,63,WELLINGTON ST,Worcester,MA,01610,2003000001363,42.259899,-71.809274,240,Motor Vehicle Theft
2010,2010000001528,1/6/2010 12:20:00,731,MAIN ST,Worcester,MA,01610,2003000003618,42.257639,-71.808375,120,Robbery
2010,2010000001529,1/6/2010 12:21:00,10,SYCAMORE ST,Worcester,MA,01608,2003000016384,42.258025,-71.806008,220,Burglary/Breaking & Entering
2010,2010000001529,1/6/2010 12:21:00,10,SYCAMORE ST,Worcester,MA,01608,2003000016384,42.258025,-71.806008,13A,Aggravated Assault
2010,2010000001546,1/6/2010 13:21:00,49,PROVIDENCE ST,Worcester,MA,01604,2005000008111,42.255446,-71.792555,13C,Assault - Intimidation
2010,2010000001546,1/6/2010 13:21:00,49,PROVIDENCE ST,Worcester,MA,01604,2005000008111,42.255446,-71.792555,220,Burglary/Breaking & Entering
2010,2010000001546,1/6/2010 13:21:00,49,PROVIDENCE ST,Worcester,MA,01604,2005000008111,42.255446,-71.792555,290,Destruction/Damage/Vandalism of Property
2010,2010000001549,1/6/2010 13:28:00,5,UTICA DR,Worcester,MA,01603,2005000008234,42.24551,-71.8506,26C,Impersonation
2010,2010000001580,1/6/2010 15:43:00,49,PROVIDENCE ST,Worcester,MA,01604,2005000008111,42.255446,-71.792555,13C,Assault - Intimidation
2010,2010000001588,1/6/2010 16:08:00,30,ERIE AV,Worcester,MA,01605,2001000003255,42.304171,-71.768612,240,Motor Vehicle Theft
2010,2010000001589,1/6/2010 16:17:00,49,BARCLAY ST,Worcester,MA,01604,2003000001782,42.252747,-71.788667,13A,Aggravated Assault
2010,2010000001595,1/6/2010 17:14:00,495,GROVE ST,Worcester,MA,01605,2002000000920,42.284,-71.8138,13B,Simple Assault
2010,2010000001597,1/6/2010 18:52:00,275,BURNCOAT ST,Worcester,MA,01606,2001000002079,42.305122,-71.789372,35A,Drug/Narcotic Violations
2010,2010000001606,1/6/2010 18:57:00,51,GATES ST,Worcester,MA,01610,2003000018685,42.24832,-71.820405,290,Destruction/Damage/Vandalism of Property
2010,2010000001612,1/6/2010 19:05:00,560,SOUTHWEST CUTOFF,Worcester,MA,01607,2003000000368,42.212462,-71.79681,35A,Drug/Narcotic Violations
2010,2010000001612,1/6/2010 19:05:00,560,SOUTHWEST CUTOFF,Worcester,MA,01607,2003000000368,42.212462,-71.79681,90J,Trespass of Real Property
2010,2010000001612,1/6/2010 19:05:00,560,SOUTHWEST CUTOFF,Worcester,MA,01607,2003000000368,42.212462,-71.79681,90N,Resisting Arrest
2010,2010000001634,1/6/2010 20:52:00,507,MAIN ST,Worcester,MA,01608,2003000003829,42.26194,-71.802569,250,Counterfeiting/Forgery
2010,2010000001636,1/6/2010 21:05:00,464,SUNDERLAND RD,Worcester,MA,01604,2003000015930,42.241073,-71.751624,220,Burglary/Breaking & Entering
2010,2010000001652,1/6/2010 22:20:00,20,WOODLAND ST,Worcester,MA,01610,2003000000019,42.257708,-71.817075,13A,Aggravated Assault
2010,2010000001653,1/6/2010 22:58:00,6,ENGLEWOOD AV,Worcester,MA,01603,2003000023278,42.254712,-71.833063,90D,Driving Under the Influence
2010,2010000001659,1/6/2010 23:19:00,26,LAFAYETTE ST,Worcester,MA,01608,2003000001218,42.252946,-71.801058,13A,Aggravated Assault
2010,2010000001663,1/6/2010 23:58:00,35,WILLIAM ST,Worcester,MA,01609,2003000003699,42.267268,-71.807663,90C,Disorderly Conduct
2010,2010000001675,1/7/2010 1:41:00,40,WHIPPLE ST,Worcester,MA,01607,2003000022902,42.231861,-71.797916,220,Burglary/Breaking & Entering
2010,2010000001685,1/7/2010 2:39:00,3,BOURNE ST,Worcester,MA,01606,2001000005412,42.302551,-71.80023,13B,Simple Assault
2010,2010000001700,1/7/2010 7:05:00,10,BELLEVUE ST,Worcester,MA,01609,2003000001856,42.262963,-71.816758,13B,Simple Assault
2010,2010000001705,1/6/2010 23:30:00,34,EDWARD ST,Worcester,MA,01605,2001000004752,42.269495,-71.792351,290,Destruction/Damage/Vandalism of Property
2010,2010000001709,1/7/2010 8:39:00,11,NORFOLK ST,Worcester,MA,01604,2003000017740,42.260519,-71.78672,13B,Simple Assault
2010,2010000001725,1/7/2010 10:18:00,92,HOUGHTON ST,Worcester,MA,01604,2003000018773,42.250877,-71.7854,220,Burglary/Breaking & Entering
2010,2010000001749,1/7/2010 4:00:00,17,NORTHRIDGE ST,Worcester,MA,01603,2004000001694,42.257765,-71.828691,23F,Theft from Motor Vehicle
2010,2010000001753,1/7/2010 1:30:00,18,GRAFTON ST,Worcester,MA,01604,2003000001361,42.260381,-71.793863,23H,All Other Thefts
2010,2010000001762,1/7/2010 13:16:00,35,WILLIAM ST,Worcester,MA,01609,2003000003699,42.267268,-71.807663,23H,All Other Thefts
2010,2010000001768,1/7/2010 13:31:00,25,CATHARINE ST,Worcester,MA,01605,2001000004310,42.273914,-71.786686,13B,Simple Assault
2010,2010000001778,1/7/2010 14:04:00,68,JAQUES AV,Worcester,MA,01610,2001000007912,42.259662,-71.812111,23H,All Other Thefts
2010,2010000001784,1/7/2010 14:39:00,134,HAMILTON ST,Worcester,MA,01604,2001000005577,42.256179,-71.777752,13A,Aggravated Assault
2010,2010000001806,1/7/2010 15:44:00,1241,MAIN ST,Worcester,MA,01603,2003000000745,42.242338,-71.842343,23H,All Other Thefts
2010,2010000001815,1/7/2010 16:13:00,50,CAMBRIDGE ST,Worcester,MA,01603,2003000005327,42.243002,-71.829749,23F,Theft from Motor Vehicle
2010,2010000001819,1/7/2010 16:25:00,89,SOUTHGATE ST,Worcester,MA,01610,2001000001239,42.24593,-71.817048,26C,Impersonation
2010,2010000001825,1/7/2010 16:55:00,6,CLARENDON ST,Worcester,MA,01604,2008000002940,42.259343,-71.781104,90I,Runaway
2010,2010000001830,1/7/2010 17:16:00,357,PLANTATION ST,Worcester,MA,01604,2003000019120,42.273294,-71.768695,23H,All Other Thefts
2010,2010000001832,1/7/2010 17:26:00,314,PLEASANT ST,Worcester,MA,01609,2010000000063,,,23H,All Other Thefts
2010,2010000001847,1/7/2010 18:04:00,117,GOLD STAR BLVD,Worcester,MA,01606,2002000000443,42.291984,-71.803772,250,Counterfeiting/Forgery
2010,2010000001858,1/7/2010 18:57:00,87,GAGE ST,Worcester,MA,01605,2003000016863,42.268201,-71.788294,90I,Runaway
2010,2010000001860,1/7/2010 19:01:00,63,WAYSIDE RD,Worcester,MA,01605,2003000024235,42.299663,-71.771981,290,Destruction/Damage/Vandalism of Property
2010,2010000001861,1/7/2010 19:01:00,19,DAVIDSON RD,Worcester,MA,01605,2003000012349,42.294542,-71.788644,23F,Theft from Motor Vehicle
2010,2010000001862,1/7/2010 13:30:00,67,COHASSET ST,Worcester,MA,01604,2003000013320,42.254771,-71.779062,220,Burglary/Breaking & Entering
2010,2010000001865,1/7/2010 19:07:00,725,GRAFTON ST,Worcester,MA,01604,2003000000195,42.251132,-71.768321,520,Weapon Law Violation
2010,2010000001865,1/7/2010 19:07:00,725,GRAFTON ST,Worcester,MA,01604,2003000000195,42.251132,-71.768321,35A,Drug/Narcotic Violations
2010,2010000001868,1/7/2010 19:12:00,1147,MAIN ST,Worcester,MA,01603,2003000014172,42.244021,-71.836335,13B,Simple Assault
2010,2010000001875,1/7/2010 19:38:00,12,MILLBURY ST,Worcester,MA,01610,2002000000710,42.254427,-71.797934,26C,Impersonation
2010,2010000001886,1/7/2010 20:44:00,112,PASADENA PKWY,Worcester,MA,01605,2001000004411,42.30125,-71.765391,220,Burglary/Breaking & Entering
2010,2010000001911,1/7/2010 22:15:00,57,JAMES ST,Worcester,MA,01603,2003000000249,42.233147,-71.849327,13B,Simple Assault
2010,2010000001911,1/7/2010 22:15:00,57,JAMES ST,Worcester,MA,01603,2003000000249,42.233147,-71.849327,290,Destruction/Damage/Vandalism of Property
2010,2010000001922,1/7/2010 23:28:00,49,WAVERLY ST,Worcester,MA,01604,2003000004029,42.256574,-71.792391,13C,Assault - Intimidation
2010,2010000001923,1/7/2010 23:28:00,7,RUTHVEN AV,Worcester,MA,01606,2003000012526,42.290847,-71.804614,13C,Assault - Intimidation
2010,2010000001940,1/8/2010 1:23:00,237,CAMBRIDGE ST,Worcester,MA,01603,2002000001029,42.243606,-71.820461,120,Robbery
2010,2010000001943,1/8/2010 1:45:00,110,SUMMER ST,Worcester,MA,01608,2003000002188,42.267093,-71.795139,120,Robbery
2010,2010000001960,1/8/2010 2:58:00,21,HILL ST,Worcester,MA,01605,2003000010436,42.263817,-71.790053,220,Burglary/Breaking & Entering
2010,2010000001991,1/8/2010 7:59:00,201,MORELAND ST,Worcester,MA,01609,2004000004467,42.290462,-71.842809,220,Burglary/Breaking & Entering
2010,2010000002003,1/7/2010 20:00:00,522,SOUTHWEST CUTOFF,Worcester,MA,01607,2001000002321,42.217572,-71.780574,23G,Theft of Motor Vehicle Parts
2010,2010000002004,1/7/2010 19:30:00,160,FREMONT ST,Worcester,MA,01603,2003000004202,42.242208,-71.823801,290,Destruction/Damage/Vandalism of Property
2010,2010000002012,1/7/2010 16:30:00,18,SHERMAN ST,Worcester,MA,01610,2001000004883,42.244198,-71.805221,290,Destruction/Damage/Vandalism of Property
2010,2010000002019,1/8/2010 10:48:00,25,MOUNT AV,Worcester,MA,01606,2003000014177,42.312433,-71.801004,13B,Simple Assault
2010,2010000002019,1/8/2010 10:48:00,25,MOUNT AV,Worcester,MA,01606,2003000014177,42.312433,-71.801004,220,Burglary/Breaking & Entering
2010,2010000002021,1/8/2010 10:51:00,70,JAMES ST,Worcester,MA,01603,2003000001019,42.231822,-71.849717,220,Burglary/Breaking & Entering
2010,2010000002021,1/8/2010 10:51:00,70,JAMES ST,Worcester,MA,01603,2003000001019,42.231822,-71.849717,240,Motor Vehicle Theft
2010,2010000002024,1/8/2010 10:58:00,98,WARD ST,Worcester,MA,01610,2003000001984,42.247808,-71.800052,220,Burglary/Breaking & Entering
2010,2010000002027,1/8/2010 11:15:00,135,CONSTITUTION AV,Worcester,MA,01605,2003000006183,42.307155,-71.770945,13C,Assault - Intimidation
2010,2010000002033,1/8/2010 1:00:00,336,MAIN STREET,WORCESTER,MA,01608,,,,13B,Simple Assault
2010,2010000002034,1/8/2010 11:40:00,49,PLEASANT VALLEY DR,Worcester,MA,01605,2003000000276,42.295422,-71.778186,290,Destruction/Damage/Vandalism of Property
2010,2010000002037,1/8/2010 12:15:00,52,PROUTY LN,Worcester,MA,01602,2003000017484,42.278614,-71.874428,13B,Simple Assault
2010,2010000002045,1/8/2010 13:01:00,43,UPSALA ST,Worcester,MA,01610,2003000007136,42.242139,-71.79436,13C,Assault - Intimidation
2010,2010000002055,1/8/2010 13:17:00,54,GREAT BROOK VALLEY A,Worcester,MA,01605,2003000006627,42.304396,-71.766484,90I,Runaway
2010,2010000002061,1/8/2010 13:52:00,570,PLEASANT ST,Worcester,MA,01602,2003000013864,42.264643,-71.821941,23H,All Other Thefts
2010,2010000002077,1/8/2010 9:00:00,76,TOWNSEND ST,Worcester,MA,01609,2003000011988,42.264735,-71.818094,23F,Theft from Motor Vehicle
2010,2010000002091,1/8/2010 15:31:00,101,PLANTATION ST,WORCESTER,MA,,,,,23D,Theft from Building
2010,2010000002096,1/8/2010 15:44:00,6,SEVER ST,Worcester,MA,01609,2003000001321,42.264502,-71.812206,13A,Aggravated Assault
2010,2010000002122,1/8/2010 16:52:00,25,RIPLEY ST,Worcester,MA,01610,2003000006337,42.252053,-71.814645,26C,Impersonation
2010,2010000002141,1/8/2010 18:18:00,165,MOUNTAIN ST W,Worcester,MA,01606,2003000013337,42.326873,-71.802547,23H,All Other Thefts
2010,2010000002144,1/8/2010 18:35:00,293,PLEASANT ST,Worcester,MA,01609,2001000001691,42.264016,-71.812727,23F,Theft from Motor Vehicle
2010,2010000002145,1/8/2010 18:39:00,198,STAFFORD ST,Worcester,MA,01603,2003000001613,42.235482,-71.851239,13B,Simple Assault
2010,2010000002156,1/8/2010 19:11:00,25,SOUTHOLD RD,Worcester,MA,01607,2005000004402,42.220025,-71.798979,13A,Aggravated Assault
2010,2010000002163,1/8/2010 19:46:00,43,HADWEN RD,Worcester,MA,01602,2004000001588,42.267016,-71.833948,250,Counterfeiting/Forgery
2010,2010000002168,1/8/2010 20:05:00,2,MARBLE ST,Worcester,MA,01603,2003000015733,42.247766,-71.826802,13B,Simple Assault
2010,2010000002174,1/8/2010 20:19:00,50,QUEEN ST,Worcester,MA,01609,2003000008756,42.257393,-71.815581,23F,Theft from Motor Vehicle
2010,2010000002182,1/8/2010 21:02:00,123,SUMMER ST,Worcester,MA,01604,2005000010606,42.2646358,-71.7969132,13A,Aggravated Assault
2010,2010000002185,1/8/2010 21:13:00,22,OAKVIEW ST,Worcester,MA,01605,2003000004435,42.29456,-71.763521,26B,Credit Card/Automatic Teller Fraud
2010,2010000002189,1/8/2010 21:23:00,9,OAKVIEW ST,Worcester,MA,01605,2003000009425,42.295626,-71.763767,35A,Drug/Narcotic Violations
2010,2010000002199,1/8/2010 21:54:00,370,PARK AV,Worcester,MA,01610,2003000001196,42.258878,-71.822193,23F,Theft from Motor Vehicle
2010,2010000002200,1/8/2010 22:01:00,4,MOEN ST,Worcester,MA,01605,2002000001245,42.276326,-71.796204,13B,Simple Assault
2010,2010000002200,1/8/2010 22:01:00,4,MOEN ST,Worcester,MA,01605,2002000001245,42.276326,-71.796204,90C,Disorderly Conduct
2010,2010000002213,1/8/2010 22:48:00,4,MOEN ST,Worcester,MA,01605,2002000001245,42.276326,-71.796204,13C,Assault - Intimidation
2010,2010000002222,1/8/2010 23:32:00,4,MOEN ST,Worcester,MA,01605,2002000001245,42.276326,-71.796204,90C,Disorderly Conduct
2010,2010000002247,1/9/2010 1:20:00,1,DUNCANNON AV,Worcester,MA,01604,2001000007416,42.24503,-71.761122,13B,Simple Assault
2010,2010000002248,1/9/2010 1:24:00,97,TEMPLE ST,Worcester,MA,01604,2001000002950,42.25952,-71.794134,90D,Driving Under the Influence
2010,2010000002251,1/9/2010 1:37:00,97,WATER ST,Worcester,MA,01604,2003000005553,42.256121,-71.795949,90C,Disorderly Conduct
2010,2010000002254,1/9/2010 2:00:00,97,WATER ST,Worcester,MA,01604,2009000000197,,,90J,Trespass of Real Property
2010,2010000002260,1/9/2010 2:26:00,96,WATER ST,Worcester,MA,01604,2001000004443,42.256413,-71.796122,90C,Disorderly Conduct
2010,2010000002270,1/9/2010 3:28:00,23,VERNON ST,Worcester,MA,01610,2003000006467,42.253132,-71.796569,13B,Simple Assault
2010,2010000002279,1/9/2010 5:20:00,9,LINCOLN SQ,Worcester,MA,01605,2007000003622,42.298126,-71.766495,90C,Disorderly Conduct
2010,2010000002291,1/9/2010 7:52:00,341,GROVE ST,Worcester,MA,01605,2002000001131,42.284695,-71.807747,240,Motor Vehicle Theft
2010,2010000002295,1/9/2010 1:00:00,536,MAIN ST,Worcester,MA,01608,2003000004857,42.261343,-71.803392,220,Burglary/Breaking & Entering
2010,2010000002319,1/9/2010 11:26:00,56,SOPHIA DR,Worcester,MA,01607,2007000005032,42.228869,-71.807654,240,Motor Vehicle Theft
2010,2010000002319,1/9/2010 11:26:00,56,SOPHIA DR,Worcester,MA,01607,2007000005032,42.228869,-71.807654,23H,All Other Thefts
2010,2010000002328,1/9/2010 12:08:00,7,SWEETBRIAR LN,Worcester,MA,01602,2005000003032,42.259354,-71.848806,220,Burglary/Breaking & Entering
2010,2010000002340,1/9/2010 13:11:00,35,MAYWOOD ST,Worcester,MA,01603,2003000007819,42.250762,-71.825616,220,Burglary/Breaking & Entering
2010,2010000002356,1/9/2010 14:50:00,44,MILTON ST,Worcester,MA,01605,2003000001727,42.286275,-71.804065,120,Robbery
2010,2010000002368,1/9/2010 16:04:00,51,BEAVER ST,Worcester,MA,01603,2003000001266,42.24947,-71.827937,220,Burglary/Breaking & Entering
2010,2010000002381,1/9/2010 17:06:00,50,MILL ST,Worcester,MA,01603,2002000000341,42.247141,-71.832136,23H,All Other Thefts
2010,2010000002399,1/9/2010 18:11:00,304,BELMONT ST,Worcester,MA,01605,2001000005053,42.273506,-71.768404,90D,Driving Under the Influence
2010,2010000002412,1/9/2010 18:53:00,40,BOYD ST,Worcester,MA,01606,2002000000474,42.293675,-71.807156,26B,Credit Card/Automatic Teller Fraud
2010,2010000002429,1/9/2010 20:19:00,12,PERKINS ST,Worcester,MA,01605,2001000002848,42.278714,-71.793507,13C,Assault - Intimidation
2010,2010000002430,1/9/2010 20:24:00,1051,MAIN ST,Worcester,MA,01603,2003000012379,42.245261,-71.830999,90G,Liquor Law Violation
2010,2010000002430,1/9/2010 20:24:00,1051,MAIN ST,Worcester,MA,01603,2003000012379,42.245261,-71.830999,90N,Resisting Arrest
2010,2010000002435,1/9/2010 20:54:00,34,BARCLAY ST,Worcester,MA,01604,2003000025735,42.253878,-71.78928,90I,Runaway
2010,2010000002437,1/9/2010 21:03:00,290,CONSTITUTION AV,Worcester,MA,01605,2004000004143,42.307799,-71.774787,13A,Aggravated Assault
2010,2010000002439,1/9/2010 21:10:00,56,GREAT BROOK VALLEY A,Worcester,MA,01605,2002000001016,42.304474,-71.766612,13B,Simple Assault
2010,2010000002442,1/9/2010 21:30:00,20,SVEA ST,Worcester,MA,01607,2003000002190,42.241738,-71.796417,290,Destruction/Damage/Vandalism of Property
2010,2010000002442,1/9/2010 21:30:00,20,SVEA ST,Worcester,MA,01607,2003000002190,42.241738,-71.796417,13A,Aggravated Assault
2010,2010000002446,1/9/2010 21:50:00,350,SOUTHBRIDGE ST,Worcester,MA,01610,2003000002578,42.252972,-71.80743,290,Destruction/Damage/Vandalism of Property
2010,2010000002451,1/9/2010 22:35:00,36,MILLBROOK ST,Worcester,MA,01606,2001000006022,42.288944,-71.802997,120,Robbery
2010,2010000002458,1/9/2010 23:12:00,60,LAKEWOOD ST,Worcester,MA,01603,2003000021743,42.246895,-71.836314,220,Burglary/Breaking & Entering
2010,2010000002464,1/9/2010 23:42:00,50,BENEFIT ST,Worcester,MA,01610,2003000001130,42.252938,-71.810417,90C,Disorderly Conduct
2010,2010000002464,1/9/2010 23:42:00,50,BENEFIT ST,Worcester,MA,01610,2003000001130,42.252938,-71.810417,13A,Aggravated Assault
2010,2010000002464,1/9/2010 23:42:00,50,BENEFIT ST,Worcester,MA,01610,2003000001130,42.252938,-71.810417,90N,Resisting Arrest
2010,2010000002488,1/10/2010 1:42:00,370,PARK AV,Worcester,MA,01610,2003000001196,42.258878,-71.822193,90C,Disorderly Conduct
2010,2010000002488,1/10/2010 1:42:00,370,PARK AV,Worcester,MA,01610,2003000001196,42.258878,-71.822193,13A,Aggravated Assault
2010,2010000002493,1/10/2010 1:50:00,28,KING PHILIP RD,Worcester,MA,01606,2003000007583,42.304049,-71.799384,13B,Simple Assault
2010,2010000002502,1/10/2010 2:38:00,70,WINTER ST,Worcester,MA,01604,2003000000789,42.258871,-71.794756,23H,All Other Thefts
2010,2010000002512,1/10/2010 2:59:00,184,MADISON ST,Worcester,MA,01610,2003000002229,42.255328,-71.798725,23C,Shoplifting
2010,2010000002523,1/10/2010 4:31:00,49,COUNTRY CLUB BLVD,Worcester,MA,01605,2001000001764,42.298524,-71.775585,13B,Simple Assault
2010,2010000002533,1/10/2010 5:49:00,181,COUNTRY CLUB BLVD,Worcester,MA,01605,2003000003191,42.30162,-71.776675,23H,All Other Thefts
2010,2010000002542,1/10/2010 7:20:00,200,VERNON ST,Worcester,MA,01610,2002000001008,42.2405037,-71.7978879,240,Motor Vehicle Theft
2010,2010000002550,1/10/2010 8:33:00,10,HARRISON ST,Worcester,MA,01604,2003000023815,42.25699,-71.797091,290,Destruction/Damage/Vandalism of Property
2010,2010000002559,1/10/2010 9:17:00,68,HARDING ST,Worcester,MA,01604,2001000006495,42.2594885,-71.7953335,240,Motor Vehicle Theft
2010,2010000002566,1/10/2010 10:03:00,2,LAFAYETTE ST,Worcester,MA,01608,2003000000918,42.252913,-71.799328,290,Destruction/Damage/Vandalism of Property
2010,2010000002576,1/10/2010 11:17:00,46,LAFAYETTE ST,Worcester,MA,01608,2003000004780,42.252781,-71.802076,240,Motor Vehicle Theft
2010,2010000002588,1/10/2010 12:39:00,128,PROVIDENCE ST,Worcester,MA,01604,2001000007524,42.24811,-71.793032,23F,Theft from Motor Vehicle
2010,2010000002589,1/10/2010 12:46:00,20,LAKEWOOD ST,Worcester,MA,01603,2003000002025,42.245293,-71.83667,13C,Assault - Intimidation
2010,2010000002624,1/10/2010 16:28:00,72,OREAD ST,Worcester,MA,01608,2003000006086,42.253436,-71.809458,13C,Assault - Intimidation
2010,2010000002624,1/10/2010 16:28:00,72,OREAD ST,Worcester,MA,01608,2003000006086,42.253436,-71.809458,90J,Trespass of Real Property
2010,2010000002636,1/10/2010 17:52:00,438,PARK AV,Worcester,MA,01603,2004000008882,42.2559143,-71.8247139,13A,Aggravated Assault
2010,2010000002641,1/10/2010 18:01:00,25,CAMBRIDGE ST,Worcester,MA,01603,2003000004821,42.244785,-71.830314,220,Burglary/Breaking & Entering
2010,2010000002643,1/10/2010 18:10:00,1,KELLEY SQ,Worcester,MA,01610,2001000005644,42.255057,-71.797703,13C,Assault - Intimidation
2010,2010000002646,1/10/2010 18:19:00,91,PAINE ST,Worcester,MA,01605,2003000012832,42.283924,-71.793348,100,Kidnapping/Abduction
2010,2010000002650,1/10/2010 19:09:00,501,SOUTHBRIDGE ST,Worcester,MA,01610,2003000003332,42.248254,-71.810509,290,Destruction/Damage/Vandalism of Property
2010,2010000002653,1/10/2010 19:49:00,56,GOLDTHWAITE RD,Worcester,MA,01605,2003000024407,42.296116,-71.779202,240,Motor Vehicle Theft
2010,2010000002661,1/10/2010 20:30:00,2,COES SQ,Worcester,MA,01603,2001000007744,42.24691,-71.833445,290,Destruction/Damage/Vandalism of Property
2010,2010000002667,1/10/2010 21:22:00,182,RUSSELL ST,Worcester,MA,01609,2003000019405,42.271286,-71.814172,220,Burglary/Breaking & Entering
2010,2010000002695,1/10/2010 23:42:00,19,SHIRLEY ST,Worcester,MA,01610,2003000028966,42.252707,-71.825045,220,Burglary/Breaking & Entering
2010,2010000002698,1/11/2010 0:08:00,115,STAFFORD ST,Worcester,MA,01603,2002000000336,42.238542,-71.844405,23C,Shoplifting
2010,2010000002701,1/11/2010 1:04:00,755,MAIN ST,Worcester,MA,01610,2003000002438,42.25723,-71.809134,13A,Aggravated Assault
2010,2010000002723,1/11/2010 5:36:00,875,MAIN ST,Worcester,MA,01610,2003000000812,42.252924,-71.816572,13B,Simple Assault
2010,2010000002737,1/6/2010 11:30:00,420,GRAFTON ST,Worcester,MA,01604,2002000001201,42.252628,-71.782721,290,Destruction/Damage/Vandalism of Property
2010,2010000002741,1/10/2010 12:00:00,12,MARJORIE ST,Worcester,MA,01604,2006000002396,42.251625,-71.765838,23F,Theft from Motor Vehicle
2010,2010000002744,1/10/2010 23:00:00,86,WOODLAND ST,Worcester,MA,01610,2003000003706,42.254766,-71.819082,290,Destruction/Damage/Vandalism of Property
2010,2010000002751,1/11/2010 8:35:00,125,WAMSUTTA AV,Worcester,MA,01602,2003000013718,42.262409,-71.844568,23H,All Other Thefts
2010,2010000002756,1/10/2010 15:00:00,10,RUTLEDGE ST,Worcester,MA,01604,2001000007697,42.245124,-71.785804,23F,Theft from Motor Vehicle
2010,2010000002760,1/10/2010 16:00:00,8,HACKFELD RD,Worcester,MA,01609,2003000008951,42.271405,-71.812221,23F,Theft from Motor Vehicle
2010,2010000002769,1/11/2010 9:54:00,103,EASTERN AV,Worcester,MA,01605,2007000001550,42.270442,-71.789949,290,Destruction/Damage/Vandalism of Property
2010,2010000002779,1/10/2010 20:30:00,31,HOOPER ST,Worcester,MA,01605,2007000001252,42.274684,-71.789487,290,Destruction/Damage/Vandalism of Property
2010,2010000002781,1/4/2010 10:49:00,130,Boylston St,Worcester,MA,01605,2010000000095,,,23H,All Other Thefts
2010,2010000002781,1/4/2010 10:49:00,130,Boylston St,Worcester,MA,01605,2010000000095,,,280,Stolen Property Offenses
2010,2010000002784,1/9/2010 18:00:00,503,MILL ST,Worcester,MA,01602,2006000001966,42.270958,-71.85482,23G,Theft of Motor Vehicle Parts
2010,2010000002786,1/11/2010 10:29:00,68,STAFFORD ST,Worcester,MA,01603,2001000007766,42.240659,-71.843258,23C,Shoplifting
2010,2010000002787,1/10/2010 21:30:00,32,SHELBY ST,Worcester,MA,01605,2003000019348,42.267692,-71.791816,23F,Theft from Motor Vehicle
2010,2010000002794,1/7/2010 18:00:00,582,PARK AV,Worcester,MA,01603,2001000003794,42.249143,-71.832335,290,Destruction/Damage/Vandalism of Property
2010,2010000002799,1/11/2010 11:30:00,104,AUSTIN ST,Worcester,MA,01609,2003000016424,42.261539,-71.809667,23H,All Other Thefts
2010,2010000002800,1/11/2010 11:31:00,31,LONGWORTH RD,Worcester,MA,01602,2004000002108,42.276213,-71.82546,26C,Impersonation
2010,2010000002802,1/11/2010 11:38:00,397,GROVE ST,Worcester,MA,01605,2003000003648,42.286795,-71.807835,23H,All Other Thefts
2010,2010000002805,1/11/2010 11:44:00,67,FRANK ST,Worcester,MA,01604,2003000003607,42.271196,-71.764901,26B,Credit Card/Automatic Teller Fraud
2010,2010000002806,1/10/2010 5:00:00,300,HARDING ST,Worcester,MA,01604,2005000003236,42.253673,-71.799349,290,Destruction/Damage/Vandalism of Property
2010,2010000002832,1/11/2010 13:17:00,20,BENSON AV,Worcester,MA,01605,2003000002752,42.279853,-71.7919027,26B,Credit Card/Automatic Teller Fraud
2010,2010000002832,1/11/2010 13:17:00,20,BENSON AV,Worcester,MA,01605,2003000002752,42.279853,-71.7919027,23H,All Other Thefts
2010,2010000002837,1/11/2010 13:38:00,25,ORIOL DR,Worcester,MA,01605,2002000001190,42.296312,-71.768461,23H,All Other Thefts
2010,2010000002839,1/11/2010 13:30:00,973,MAIN ST,Worcester,MA,01603,2001000009329,42.248945,-71.824071,23F,Theft from Motor Vehicle
2010,2010000002847,1/11/2010 13:54:00,121,PROVIDENCE ST,Worcester,MA,01604,2007000000423,42.249442,-71.792443,90I,Runaway
2010,2010000002848,1/11/2010 14:02:00,560,PARK AV,Worcester,MA,01603,2003000007282,42.250208,-71.831032,120,Robbery
2010,2010000002855,1/11/2010 14:32:00,2,ALLISON CIR,Worcester,MA,01606,2003000007917,42.330236,-71.784072,13C,Assault - Intimidation
2010,2010000002857,1/8/2010 17:00:00,33,CLIFTON ST,Worcester,MA,01610,2003000000699,42.253748,-71.821292,23F,Theft from Motor Vehicle
2010,2010000002861,1/11/2010 0:00:00,21,LARCH ST,Worcester,MA,01609,2004000000176,42.262215,-71.815205,23F,Theft from Motor Vehicle
2010,2010000002862,1/11/2010 8:22:00,44,LAKESIDE AV,Worcester,MA,01603,2002000000767,42.250961,-71.836491,220,Burglary/Breaking & Entering
2010,2010000002863,1/11/2010 14:48:00,31,BENEFIT ST,Worcester,MA,01610,2003000007434,42.254141,-71.810953,23H,All Other Thefts
2010,2010000002880,1/11/2010 15:56:00,40,AETNA ST,Worcester,MA,01604,2001000005963,42.253403,-71.788381,13A,Aggravated Assault
2010,2010000002890,1/11/2010 16:56:00,7,GROUT CT,Worcester,MA,01610,2003000000506,42.251516,-71.815769,26C,Impersonation
2010,2010000002902,1/11/2010 17:36:00,87,MURRAY AV,Worcester,MA,01609,2003000001663,42.258417,-71.808322,23H,All Other Thefts
2010,2010000002903,1/11/2010 17:37:00,637,SOUTHBRIDGE ST,Worcester,MA,01610,2006000001576,42.244847,-71.810938,220,Burglary/Breaking & Entering
2010,2010000002907,1/11/2010 17:43:00,19,FALCON ST,Worcester,MA,01603,2003000011068,42.236499,-71.853805,240,Motor Vehicle Theft
2010,2010000002909,1/11/2010 17:59:00,11,UPSALA ST,Worcester,MA,01610,2003000005499,42.2426,-71.79636,240,Motor Vehicle Theft
2010,2010000002913,1/11/2010 18:05:00,17,QUAKER RD,Worcester,MA,01602,2003000003148,42.28139,-71.881548,220,Burglary/Breaking & Entering
2010,2010000002938,1/11/2010 19:27:00,16,BELLEVUE ST,Worcester,MA,01609,2003000007340,42.262685,-71.816863,290,Destruction/Damage/Vandalism of Property
2010,2010000002947,1/11/2010 19:57:00,144,FAIRMONT AV,Worcester,MA,01604,2003000009778,42.255149,-71.779708,240,Motor Vehicle Theft
2010,2010000002953,1/11/2010 20:33:00,312,BELMONT ST,Worcester,MA,01605,2003000001780,42.273564,-71.765469,23H,All Other Thefts
2010,2010000002957,1/11/2010 20:49:00,194,STAFFORD ST,Worcester,MA,01603,2003000016621,42.235662,-71.850682,220,Burglary/Breaking & Entering
2010,2010000002961,1/11/2010 21:00:00,38,CATHARINE ST,Worcester,MA,01605,2002000001258,42.274722,-71.79028,13B,Simple Assault
2010,2010000002971,1/11/2010 21:34:00,117,AUSTIN ST,Worcester,MA,01609,2003000002535,42.261207,-71.810899,90C,Disorderly Conduct
2010,2010000002971,1/11/2010 21:34:00,117,AUSTIN ST,Worcester,MA,01609,2003000002535,42.261207,-71.810899,90J,Trespass of Real Property
2010,2010000002983,1/11/2010 22:26:00,50,ORIOL DR,Worcester,MA,01605,2002000001037,42.295912,-71.767972,23H,All Other Thefts
2010,2010000002992,1/11/2010 23:15:00,280,LINCOLN ST,Worcester,MA,01605,2003000006250,42.285476,-71.791582,13B,Simple Assault
2010,2010000002997,1/12/2010 0:19:00,10,SYCAMORE ST,Worcester,MA,01608,2003000016384,42.258025,-71.806008,220,Burglary/Breaking & Entering
2010,2010000002997,1/12/2010 0:19:00,10,SYCAMORE ST,Worcester,MA,01608,2003000016384,42.258025,-71.806008,13A,Aggravated Assault
2010,2010000002998,1/11/2010 9:00:00,89,DOWNING ST,Worcester,MA,01610,2003000009525,42.253653,-71.82545,220,Burglary/Breaking & Entering
2010,2010000003007,1/12/2010 1:55:00,455,PLEASANT ST,Worcester,MA,01609,2003000012388,42.26344,-71.817456,13B,Simple Assault
2010,2010000003029,1/12/2010 5:45:00,142,ELM ST,Worcester,MA,01609,2003000015993,42.265987,-71.816947,290,Destruction/Damage/Vandalism of Property
2010,2010000003032,1/12/2010 6:38:00,26,ETHAN ALLEN ST,Worcester,MA,01610,2003000008221,42.259581,-71.809735,240,Motor Vehicle Theft
2010,2010000003044,1/12/2010 7:46:00,51,WELLINGTON ST,Worcester,MA,01610,2002000000010,42.259759,-71.808854,290,Destruction/Damage/Vandalism of Property
2010,2010000003046,1/12/2010 8:03:00,225,VERNON ST,Worcester,MA,01610,2003000001079,42.2394771,-71.7963738,290,Destruction/Damage/Vandalism of Property
2010,2010000003059,1/12/2010 9:30:00,19,DOVER ST,Worcester,MA,01609,2003000008378,42.271208,-71.813801,220,Burglary/Breaking & Entering
2010,2010000003068,1/11/2010 21:30:00,455,PARK AV,Worcester,MA,01603,2004000005383,42.2545888,-71.8254925,23F,Theft from Motor Vehicle
2010,2010000003084,1/12/2010 11:17:00,190,MADISON ST,Worcester,MA,01610,2001000002114,42.255567,-71.798261,13B,Simple Assault
2010,2010000003090,1/12/2010 11:24:00,55,GATES ST,Worcester,MA,01610,2003000015132,42.24807,-71.820388,13B,Simple Assault
2010,2010000003094,1/12/2010 11:38:00,765,MAIN ST,Worcester,MA,01610,2001000009216,42.257058,-71.809454,220,Burglary/Breaking & Entering
2010,2010000003095,1/12/2010 11:41:00,9,MAY ST,Worcester,MA,01610,2003000008555,42.254839,-71.815697,250,Counterfeiting/Forgery
2010,2010000003106,1/12/2010 12:10:00,16,TYSON TER,Worcester,MA,01606,2003000016903,42.339023,-71.785482,13B,Simple Assault
2010,2010000003110,1/12/2010 12:21:00,73,HAMILTON ST,Worcester,MA,01604,2003000009757,42.256351,-71.781023,290,Destruction/Damage/Vandalism of Property
2010,2010000003112,1/12/2010 12:30:00,158,DELMONT AV,Worcester,MA,01604,2003000020999,42.252143,-71.775858,23H,All Other Thefts
2010,2010000003115,1/12/2010 12:33:00,1,KELLEY SQ,Worcester,MA,01610,2001000005644,42.255057,-71.797703,23D,Theft from Building
2010,2010000003115,1/12/2010 12:33:00,1,KELLEY SQ,Worcester,MA,01610,2001000005644,42.255057,-71.797703,26B,Credit Card/Automatic Teller Fraud
2010,2010000003117,1/12/2010 12:54:00,24,HANCOCK ST,Worcester,MA,01610,2001000004042,42.250124,-71.817847,40A,Prostitution
2010,2010000003118,1/12/2010 12:59:00,51,LAKEWOOD ST,Worcester,MA,01603,2003000009116,42.246569,-71.83706,23H,All Other Thefts
2010,2010000003121,1/12/2010 13:12:00,875,MAIN ST,Worcester,MA,01610,2003000000812,42.252924,-71.816572,35A,Drug/Narcotic Violations
2010,2010000003121,1/12/2010 13:12:00,875,MAIN ST,Worcester,MA,01610,2003000000812,42.252924,-71.816572,90N,Resisting Arrest
2010,2010000003131,1/12/2010 14:04:00,86,CUTLER ST,Worcester,MA,01604,2003000000263,42.252544,-71.786951,23H,All Other Thefts
2010,2010000003137,1/12/2010 14:19:00,15,HARLOW ST,Worcester,MA,01605,2003000005566,42.283285,-71.793771,90C,Disorderly Conduct
2010,2010000003138,1/12/2010 7:45:00,129,SOUTHGATE ST,Worcester,MA,01610,2010000000114,,,23F,Theft from Motor Vehicle
2010,2010000003157,1/12/2010 15:53:00,3,ALBERT ST,Worcester,MA,01610,2003000004915,42.24878,-71.81958,290,Destruction/Damage/Vandalism of Property
2010,2010000003165,1/12/2010 16:18:00,152,TACOMA ST,Worcester,MA,01605,2003000003818,42.306167,-71.771173,13B,Simple Assault
2010,2010000003177,1/12/2010 7:30:00,36,JOHN ST,Worcester,MA,01609,2003000013047,42.268504,-71.806476,220,Burglary/Breaking & Entering
2010,2010000003191,1/12/2010 18:09:00,35,LEDGE CREST DR,Worcester,MA,01603,2003000016911,42.2488207,-71.8613764,240,Motor Vehicle Theft
2010,2010000003194,1/12/2010 18:22:00,81,ORIENT ST,Worcester,MA,01604,2005000001229,42.261331,-71.782845,23H,All Other Thefts
2010,2010000003215,1/12/2010 19:33:00,61,DORCHESTER ST,Worcester,MA,01604,2005000000191,42.251922,-71.793368,23D,Theft from Building
2010,2010000003215,1/12/2010 19:33:00,61,DORCHESTER ST,Worcester,MA,01604,2005000000191,42.251922,-71.793368,26B,Credit Card/Automatic Teller Fraud
2010,2010000003217,1/12/2010 19:45:00,10,LANCASTER ST,Worcester,MA,01609,2003000012183,42.269803,-71.802864,220,Burglary/Breaking & Entering
2010,2010000003223,1/12/2010 20:09:00,7,ALLEN ST,Worcester,MA,01610,2003000006098,42.25437,-71.812879,90J,Trespass of Real Property
2010,2010000003224,1/12/2010 20:39:00,132,COUNTRY CLUB BLVD,Worcester,MA,01605,2003000000507,42.302123,-71.775622,13B,Simple Assault
2010,2010000003248,1/12/2010 22:31:00,142,BELMONT ST,Worcester,MA,01605,2003000012796,42.27212,-71.790145,13B,Simple Assault
2010,2010000003253,1/12/2010 23:22:00,19,STURGIS ST,Worcester,MA,01605,2003000013492,42.281479,-71.789932,13B,Simple Assault
2010,2010000003258,1/13/2010 0:09:00,5,FALMOUTH ST,Worcester,MA,01607,2002000001132,42.233248,-71.795812,13A,Aggravated Assault
2010,2010000003262,1/13/2010 0:25:00,163,MILLBURY ST,Worcester,MA,01610,2003000001525,42.251279,-71.799926,13B,Simple Assault
2010,2010000003274,1/13/2010 1:35:00,110,SUMMER ST,Worcester,MA,01608,2003000002188,42.267093,-71.795139,90D,Driving Under the Influence
2010,2010000003274,1/13/2010 1:35:00,110,SUMMER ST,Worcester,MA,01608,2003000002188,42.267093,-71.795139,90C,Disorderly Conduct
2010,2010000003274,1/13/2010 1:35:00,110,SUMMER ST,Worcester,MA,01608,2003000002188,42.267093,-71.795139,90J,Trespass of Real Property
2010,2010000003292,1/13/2010 7:06:00,1,WOODLAND PKWY,Worcester,MA,01610,2001000001070,42.253614,-71.820732,23G,Theft of Motor Vehicle Parts
2010,2010000003314,1/13/2010 8:58:00,5,LYON ST,Worcester,MA,01604,2004000000138,42.265082,-71.785848,23H,All Other Thefts
2010,2010000003317,1/12/2010 20:00:00,626,PLEASANT ST,Worcester,MA,01602,2003000021172,42.26626,-71.82408,23F,Theft from Motor Vehicle
2010,2010000003336,1/13/2010 10:20:00,178,BEVERLY RD,Worcester,MA,01605,2003000026497,42.298125,-71.782681,220,Burglary/Breaking & Entering
2010,2010000003349,1/13/2010 10:54:00,46,LAFAYETTE ST,Worcester,MA,01608,2003000004780,42.252781,-71.802076,290,Destruction/Damage/Vandalism of Property
2010,2010000003367,1/13/2010 11:57:00,87,MURRAY AV,Worcester,MA,01609,2003000001663,42.258417,-71.808322,23H,All Other Thefts
2010,2010000003373,1/13/2010 12:23:00,208,PERRY AV,Worcester,MA,01610,2003000004628,42.24347,-71.801862,220,Burglary/Breaking & Entering
2010,2010000003378,1/13/2010 13:05:00,82,LOVELL ST,Worcester,MA,01603,2003000012779,42.252274,-71.832339,13C,Assault - Intimidation
2010,2010000003408,1/12/2010 20:00:00,87,ORIENT ST,Worcester,MA,01604,2003000007096,42.261737,-71.782778,290,Destruction/Damage/Vandalism of Property
2010,2010000003416,1/13/2010 14:47:00,58,PARKER ST,Worcester,MA,01610,2004000000070,42.258945,-71.823566,23F,Theft from Motor Vehicle
2010,2010000003419,1/13/2010 15:03:00,949,GRAFTON ST,Worcester,MA,01604,2002000000601,42.246669,-71.760297,26B,Credit Card/Automatic Teller Fraud
2010,2010000003419,1/13/2010 15:03:00,949,GRAFTON ST,Worcester,MA,01604,2002000000601,42.246669,-71.760297,23H,All Other Thefts
2010,2010000003423,1/13/2010 15:14:00,171,BELMONT ST,Worcester,MA,01605,2003000014058,42.272908,-71.788112,40A,Prostitution
2010,2010000003424,1/13/2010 15:27:00,15,HARLOW ST,Worcester,MA,01605,2003000005566,42.283285,-71.793771,90I,Runaway
2010,2010000003428,1/13/2010 15:43:00,500,GRAFTON ST,WORCESTER,MA,01604,2001000009305,42.250422,-71.779667,23H,All Other Thefts
2010,2010000003441,1/13/2010 16:11:00,301,BARBER AV,Worcester,MA,01606,2003000000582,42.294445,-71.79698,13B,Simple Assault
2010,2010000003447,1/13/2010 16:43:00,460,PARK AV,Worcester,MA,01603,2004000005145,42.254882,-71.826054,23G,Theft of Motor Vehicle Parts
2010,2010000003449,1/13/2010 16:52:00,340,MAIN ST,Worcester,MA,01608,2001000008020,42.265156,-71.801624,220,Burglary/Breaking & Entering
2010,2010000003454,1/13/2010 17:25:00,160,FREMONT ST,Worcester,MA,01603,2003000004202,42.242208,-71.823801,23D,Theft from Building
2010,2010000003469,1/13/2010 18:09:00,701,MAIN ST,Worcester,MA,01610,2001000004290,42.258261,-71.807228,120,Robbery
2010,2010000003486,1/13/2010 19:33:00,333,PARK AV,,MA,,,,,90G,Liquor Law Violation
2010,2010000003494,1/13/2010 19:57:00,359,PLANTATION ST,Worcester,MA,01604,2001000006600,42.273393,-71.768583,90C,Disorderly Conduct
2010,2010000003494,1/13/2010 19:57:00,359,PLANTATION ST,Worcester,MA,01604,2001000006600,42.273393,-71.768583,90J,Trespass of Real Property
2010,2010000003503,1/13/2010 20:41:00,4,ALBERT ST,Worcester,MA,01610,2003000015629,42.248997,-71.81992,220,Burglary/Breaking & Entering
2010,2010000003508,1/13/2010 20:54:00,701,MAIN ST,Worcester,MA,01610,2001000004290,42.258261,-71.807228,13B,Simple Assault
2010,2010000003510,1/13/2010 21:00:00,400,PARK AV,Worcester,MA,01610,2003000020923,42.256713,-71.823464,90G,Liquor Law Violation
2010,2010000003513,1/13/2010 21:13:00,6,ALBERT ST,Worcester,MA,01610,2003000017461,42.248927,-71.820115,23H,All Other Thefts
2010,2010000003518,1/13/2010 21:32:00,258,PLEASANT ST,Worcester,MA,01609,2001000000508,42.263827,-71.810896,90D,Driving Under the Influence
2010,2010000003540,1/13/2010 23:22:00,19,TACOMA ST,Worcester,MA,01605,2003000000559,42.303688,-71.767048,220,Burglary/Breaking & Entering
2010,2010000003542,1/13/2010 23:28:00,19,SUFFIELD ST,Worcester,MA,01610,2003000013546,42.249554,-71.796466,13B,Simple Assault
2010,2010000003545,1/13/2010 23:52:00,28,RUSSELL ST,Worcester,MA,01609,2003000007420,42.262777,-71.814262,220,Burglary/Breaking & Entering
2010,2010000003555,1/14/2010 0:45:00,89,PROSPECT ST,Worcester,MA,01608,2003000011482,42.267317,-71.789314,13A,Aggravated Assault
2010,2010000003558,1/14/2010 1:07:00,6,PIEDMONT ST,Worcester,MA,01610,2003000007951,42.2567956,-71.8110751,90C,Disorderly Conduct
2010,2010000003558,1/14/2010 1:07:00,6,PIEDMONT ST,Worcester,MA,01610,2003000007951,42.2567956,-71.8110751,13A,Aggravated Assault
2010,2010000003562,1/14/2010 1:26:00,180,GREENWOOD ST,Worcester,MA,01607,2003000009192,42.225219,-71.794727,90D,Driving Under the Influence
2010,2010000003588,1/14/2010 7:19:00,283,PARK AV,Worcester,MA,01609,2003000000215,42.263092,-71.819627,13A,Aggravated Assault
2010,2010000003596,1/14/2010 8:05:00,21,LAFAYETTE ST,Worcester,MA,01608,2004000008836,42.252595,-71.800612,220,Burglary/Breaking & Entering
2010,2010000003598,1/14/2010 0:01:00,26,STERLING ST,Worcester,MA,01610,2003000006469,42.247972,-71.797739,23G,Theft of Motor Vehicle Parts
2010,2010000003603,1/13/2010 22:00:00,373,CAMBRIDGE ST,Worcester,MA,01603,2003000004209,42.243768,-71.81539,23F,Theft from Motor Vehicle
2010,2010000003617,1/14/2010 9:38:00,531,LINCOLN ST,Worcester,MA,01605,2003000000794,42.292397,-71.774374,23C,Shoplifting
2010,2010000003625,1/14/2010 10:04:00,200,FRANKLIN ST,Worcester,MA,01608,2003000005235,42.260078,-71.7957716,220,Burglary/Breaking & Entering
2010,2010000003641,1/14/2010 11:04:00,16,KELLEY SQ,Worcester,MA,01610,2001000002593,42.254367,-71.79753,35A,Drug/Narcotic Violations
2010,2010000003646,1/14/2010 11:29:00,52,COUNTRY CLUB BLVD,Worcester,MA,01605,2002000000852,42.297798,-71.775136,220,Burglary/Breaking & Entering
2010,2010000003650,1/14/2010 11:59:00,1,STATE ST,Worcester,MA,01609,2001000006422,42.269676,-71.800242,290,Destruction/Damage/Vandalism of Property
2010,2010000003660,1/14/2010 12:45:00,765,MAIN ST,Worcester,MA,01610,2001000009216,42.257058,-71.809454,13B,Simple Assault
2010,2010000003667,1/14/2010 13:00:00,1,PERRY AV,Worcester,MA,01610,2001000005363,42.250467,-71.797712,23F,Theft from Motor Vehicle
2010,2010000003669,1/14/2010 13:21:00,185,MADISON ST,WORCESTER,MA,01610,2002000000438,42.255292,-71.798672,35A,Drug/Narcotic Violations
2010,2010000003673,1/14/2010 13:49:00,179,BELMONT ST,Worcester,MA,01605,2003000001835,42.272727,-71.78756,23H,All Other Thefts
2010,2010000003673,1/14/2010 13:49:00,179,BELMONT ST,Worcester,MA,01605,2003000001835,42.272727,-71.78756,250,Counterfeiting/Forgery
2010,2010000003678,1/14/2010 14:07:00,5,FALMOUTH ST,Worcester,MA,01607,2002000001132,42.233248,-71.795812,13C,Assault - Intimidation
2010,2010000003691,1/14/2010 15:10:00,35,WOODFORD ST,Worcester,MA,01604,2003000011084,42.243495,-71.790543,13B,Simple Assault
2010,2010000003692,1/14/2010 15:12:00,344,GREENWOOD ST,Worcester,MA,01607,2001000007614,42.21378,-71.79688,23C,Shoplifting
2010,2010000003697,1/14/2010 7:10:00,420,GRAFTON ST,Worcester,MA,01604,2002000001201,42.252628,-71.782721,23H,All Other Thefts
2010,2010000003711,1/14/2010 16:20:58,14,W BOYLSTON ST,Worcester,MA,01606,2004000006175,42.2886595,-71.8065436,23H,All Other Thefts
2010,2010000003716,1/14/2010 16:35:00,8,NEBRASKA ST,Worcester,MA,01604,2003000006184,42.268431,-71.778745,250,Counterfeiting/Forgery
2010,2010000003720,1/14/2010 16:52:00,10,SYCAMORE ST,Worcester,MA,01608,2003000016384,42.258025,-71.806008,220,Burglary/Breaking & Entering
2010,2010000003721,1/14/2010 16:53:00,28,ASSABET LN,Worcester,MA,01602,2003000024685,42.280966,-71.877111,220,Burglary/Breaking & Entering
2010,2010000003726,1/14/2010 16:57:00,76,FRANKLIN ST,Worcester,MA,01608,2003000000288,42.261173,-71.800216,23H,All Other Thefts
2010,2010000003727,1/14/2010 17:01:00,5,ROSITA RD,Worcester,MA,01606,2005000009058,42.291082,-71.808492,26A,False Pretense/Swindle/Confidence Game
2010,2010000003744,1/14/2010 17:39:00,29,WILLIAM ST,Worcester,MA,01609,2003000005365,42.267271,-71.806877,240,Motor Vehicle Theft
2010,2010000003748,1/14/2010 17:52:00,271,GRAFTON ST,Worcester,MA,01604,2003000001076,42.256381,-71.788493,35A,Drug/Narcotic Violations
2010,2010000003748,1/14/2010 17:52:00,271,GRAFTON ST,Worcester,MA,01604,2003000001076,42.256381,-71.788493,90C,Disorderly Conduct
2010,2010000003748,1/14/2010 17:52:00,271,GRAFTON ST,Worcester,MA,01604,2003000001076,42.256381,-71.788493,520,Weapon Law Violation
2010,2010000003748,1/14/2010 17:52:00,271,GRAFTON ST,Worcester,MA,01604,2003000001076,42.256381,-71.788493,90Z,All Other Offenses
2010,2010000003748,1/14/2010 17:52:00,271,GRAFTON ST,Worcester,MA,01604,2003000001076,42.256381,-71.788493,90J,Trespass of Real Property
2010,2010000003748,1/14/2010 17:52:00,271,GRAFTON ST,Worcester,MA,01604,2003000001076,42.256381,-71.788493,90N,Resisting Arrest
2010,2010000003750,1/14/2010 17:57:00,35,QUEEN ST,Worcester,MA,01609,2003000007552,42.258034,-71.813543,220,Burglary/Breaking & Entering
2010,2010000003754,1/14/2010 18:08:00,28,CLIFTON ST,Worcester,MA,01610,2003000001253,42.254275,-71.821326,26B,Credit Card/Automatic Teller Fraud
2010,2010000003755,1/14/2010 18:15:00,60,PROVIDENCE ST,Worcester,MA,01604,2003000007967,42.254301,-71.793021,13B,Simple Assault
2010,2010000003764,1/14/2010 19:02:00,171,WASHINGTON ST,Worcester,MA,01610,2003000004263,42.253576,-71.800219,40A,Prostitution
2010,2010000003769,1/14/2010 19:17:00,344,GREENWOOD ST,Worcester,MA,01607,2001000007614,42.21378,-71.79688,250,Counterfeiting/Forgery
2010,2010000003777,1/14/2010 19:54:00,106,WOODLAND ST,Worcester,MA,01610,2003000010344,42.253722,-71.819695,13B,Simple Assault
2010,2010000003793,1/14/2010 20:50:00,43,MAYWOOD ST,Worcester,MA,01603,2001000007433,42.251177,-71.825806,40A,Prostitution
2010,2010000003804,1/14/2010 21:23:00,15,SHANNON ST,Worcester,MA,01604,2001000007431,42.250704,-71.789237,220,Burglary/Breaking & Entering
2010,2010000003835,1/14/2010 23:39:00,228,FAIRMONT AV,Worcester,MA,01604,2004000000171,42.251977,-71.7792,13A,Aggravated Assault
2010,2010000003838,1/14/2010 23:56:00,34,MAY ST,Worcester,MA,01610,2003000014465,42.256253,-71.818404,26B,Credit Card/Automatic Teller Fraud
2010,2010000003849,1/15/2010 0:41:00,116,PILGRIM AV,Worcester,MA,01604,2003000013303,42.255331,-71.778833,240,Motor Vehicle Theft
2010,2010000003850,1/15/2010 0:42:00,29,CAMP ST,Worcester,MA,01603,2003000028680,42.243965,-71.816604,23F,Theft from Motor Vehicle
2010,2010000003851,1/15/2010 0:48:00,65,RODNEY ST,Worcester,MA,01605,2003000002490,42.274911,-71.786693,13C,Assault - Intimidation
2010,2010000003852,1/15/2010 0:48:00,29,CAMP ST,Worcester,MA,01603,2003000028680,42.243965,-71.816604,23F,Theft from Motor Vehicle
2010,2010000003865,1/15/2010 2:00:00,107,WATER ST,Worcester,MA,01604,2005000009367,42.25598,-71.795918,90G,Liquor Law Violation
2010,2010000003874,1/15/2010 2:53:00,1136,GRAFTON ST,Worcester,MA,01604,2001000004351,42.241257,-71.754118,13B,Simple Assault
2010,2010000003878,1/15/2010 3:54:00,87,MURRAY AV,Worcester,MA,01609,2003000001663,42.258417,-71.808322,13B,Simple Assault
2010,2010000003900,1/15/2010 7:46:00,1,IONIC AV,Worcester,MA,01608,2001000003311,42.258347,-71.805125,120,Robbery
2010,2010000003907,1/15/2010 8:24:00,88,MAY ST,WORCESTER,MA,,,,,23G,Theft of Motor Vehicle Parts
2010,2010000003916,1/15/2010 9:03:00,10,BELLEVUE ST,Worcester,MA,01609,2003000001856,42.262963,-71.816758,26C,Impersonation
2010,2010000003918,1/15/2010 9:30:00,17,DUXBURY RD,Worcester,MA,01605,2003000004286,42.284266,-71.790166,240,Motor Vehicle Theft
2010,2010000003923,1/14/2010 22:00:00,721,MAIN ST,Worcester,MA,01610,2003000020443,42.257733,-71.808199,290,Destruction/Damage/Vandalism of Property
2010,2010000003926,1/15/2010 9:53:00,2,SHERMAN ST,Worcester,MA,01610,2001000005579,42.243502,-71.807206,290,Destruction/Damage/Vandalism of Property
2010,2010000003932,1/15/2010 10:09:00,4,MANN ST,Worcester,MA,01602,2003000005672,42.262279,-71.826971,13B,Simple Assault
2010,2010000003934,1/15/2010 10:14:00,361,SOUTHWEST CUTOFF,Worcester,MA,01604,2003000002958,42.223655,-71.767054,23G,Theft of Motor Vehicle Parts
2010,2010000003935,1/15/2010 10:19:00,3,BOYDEN ST,Worcester,MA,01610,2003000001560,42.237154,-71.81405,220,Burglary/Breaking & Entering
2010,2010000003935,1/15/2010 10:19:00,3,BOYDEN ST,Worcester,MA,01610,2003000001560,42.237154,-71.81405,240,Motor Vehicle Theft
2010,2010000003954,1/15/2010 11:17:00,1359,GRAFTON ST,Worcester,MA,01604,2003000007001,42.235806,-71.747734,23G,Theft of Motor Vehicle Parts
2010,2010000003964,1/15/2010 12:42:00,14,BROOKSIDE AV,Worcester,MA,01602,2003000011421,42.2771787,-71.8551365,13C,Assault - Intimidation
2010,2010000003965,1/15/2010 12:45:00,104,RANDOLPH RD,Worcester,MA,01606,2003000003887,42.299333,-71.797593,23H,All Other Thefts
2010,2010000003969,1/15/2010 12:58:00,27,WEST ST,Worcester,MA,01609,2003000000780,42.26527,-71.809099,23G,Theft of Motor Vehicle Parts
2010,2010000003977,1/15/2010 13:36:00,10,LAKESIDE AV,Worcester,MA,01603,2002000000912,42.250479,-71.833648,13C,Assault - Intimidation
2010,2010000003996,1/14/2010 17:30:00,35,KATAHDIN ST,Worcester,MA,01606,2010000000138,,,23H,All Other Thefts
2010,2010000003997,1/15/2010 15:02:00,1096,MAIN ST,Worcester,MA,01603,2004000012904,42.245003,-71.833972,290,Destruction/Damage/Vandalism of Property
2010,2010000004002,1/14/2010 22:00:00,37,INSTITUTE RD,Worcester,MA,01609,2009000003423,,,23F,Theft from Motor Vehicle
2010,2010000004004,1/14/2010 20:00:00,731,MAIN ST,Worcester,MA,01610,2003000003618,42.257639,-71.808375,290,Destruction/Damage/Vandalism of Property
2010,2010000004019,1/15/2010 16:43:00,290,PARK AV,Worcester,MA,01609,2004000001914,42.262732,-71.820124,13B,Simple Assault
2010,2010000004029,1/15/2010 17:23:00,453,PARK AV,Worcester,MA,01603,2004000007056,42.2546925,-71.8252145,23F,Theft from Motor Vehicle
2010,2010000004047,1/15/2010 18:17:00,251,MAIN ST,Worcester,MA,01608,2001000000034,42.267038,-71.800852,290,Destruction/Damage/Vandalism of Property
2010,2010000004050,1/15/2010 18:31:00,21,EUCLID AV,Worcester,MA,01610,2003000026129,42.246187,-71.797793,220,Burglary/Breaking & Entering
2010,2010000004055,1/15/2010 18:55:00,344,GREENWOOD ST,Worcester,MA,01607,2001000007614,42.21378,-71.79688,23C,Shoplifting
2010,2010000004063,1/15/2010 19:35:00,111,COUNTRY CLUB BLVD,Worcester,MA,01605,2003000001422,42.300683,-71.777057,23H,All Other Thefts
2010,2010000004078,1/15/2010 20:58:00,69,CANTERBURY ST,Worcester,MA,01603,2003000007992,42.2486059,-71.8146506,13B,Simple Assault
2010,2010000004100,1/15/2010 21:47:00,11,HOUGHTON ST,Worcester,MA,01604,2001000007983,42.255474,-71.785566,90C,Disorderly Conduct
2010,2010000004107,1/15/2010 22:15:00,83,WOODLAND ST,Worcester,MA,01610,2001000003310,42.254866,-71.818691,290,Destruction/Damage/Vandalism of Property
2010,2010000004128,1/15/2010 23:27:00,826,MAIN ST,Worcester,MA,01610,2003000003532,42.255288,-71.813147,90D,Driving Under the Influence
2010,2010000004144,1/16/2010 0:52:00,1,LAFAYETTE ST,Worcester,MA,01608,2001000004702,42.252726,-71.799221,23F,Theft from Motor Vehicle
2010,2010000004144,1/16/2010 0:52:00,1,LAFAYETTE ST,Worcester,MA,01608,2001000004702,42.252726,-71.799221,90C,Disorderly Conduct
2010,2010000004145,1/16/2010 0:57:00,237,CAMBRIDGE ST,Worcester,MA,01603,2002000001029,42.243606,-71.820461,13B,Simple Assault
2010,2010000004162,1/16/2010 2:14:00,47,BENEFIT ST,Worcester,MA,01610,2003000006611,42.253352,-71.810227,13A,Aggravated Assault
2010,2010000004165,1/16/2010 2:18:00,494,LINCOLN ST,WORCESTER,MA,01605,2002000000058,42.29475,-71.775232,13B,Simple Assault
2010,2010000004165,1/16/2010 2:18:00,494,LINCOLN ST,WORCESTER,MA,01605,2002000000058,42.29475,-71.775232,90C,Disorderly Conduct
2010,2010000004197,1/16/2010 6:41:00,5,FALES ST,Worcester,MA,01606,2003000009405,42.311,-71.797468,240,Motor Vehicle Theft
2010,2010000004202,1/16/2010 7:52:00,123,SUMMER ST,WORCESTER,MA,01604,2005000010606,42.2646358,-71.7969132,240,Motor Vehicle Theft
2010,2010000004231,1/16/2010 10:47:00,23,COLONIAL RD,Worcester,MA,01602,2003000011621,42.270296,-71.836091,26C,Impersonation
2010,2010000004233,1/16/2010 11:03:00,117,LOVELL ST,Worcester,MA,01603,2003000012365,42.254351,-71.832751,120,Robbery
2010,2010000004244,1/16/2010 12:04:00,47,CANTERBURY ST,Worcester,MA,01603,2004000009407,42.249208,-71.813252,220,Burglary/Breaking & Entering
2010,2010000004259,1/16/2010 13:22:00,6,LAKESIDE AV,Worcester,MA,01603,2001000005110,42.250381,-71.833113,290,Destruction/Damage/Vandalism of Property
2010,2010000004283,1/16/2010 15:46:00,221,PARK AV,WORCESTER,MA,01609,2001000008290,42.270981,-71.8151,23C,Shoplifting
2010,2010000004288,1/16/2010 16:09:00,664,MAIN ST,Worcester,MA,01608,2004000007162,42.25889,-71.80618,26C,Impersonation
2010,2010000004295,1/16/2010 16:40:00,572,BURNCOAT ST,Worcester,MA,01606,2003000011856,42.324957,-71.791066,13B,Simple Assault
2010,2010000004321,1/16/2010 18:57:00,638,CHANDLER ST,Worcester,MA,01602,2002000000186,42.276847,-71.853831,23C,Shoplifting
2010,2010000004326,1/16/2010 19:57:00,217,CHANDLER ST,Worcester,MA,01609,2003000023356,42.261071,-71.818715,13A,Aggravated Assault
2010,2010000004329,1/16/2010 20:01:00,7,KELLEY SQ,Worcester,MA,01610,2001000007526,42.254913,-71.79711,13B,Simple Assault
2010,2010000004330,1/16/2010 20:12:00,2,FEDERAL ST,Worcester,MA,01608,2001000004571,42.261414,-71.803204,120,Robbery
2010,2010000004335,1/16/2010 20:45:00,31,VERNON ST,Worcester,MA,01610,2003000001227,42.252619,-71.796196,13A,Aggravated Assault
2010,2010000004347,1/16/2010 21:36:00,54,HOLLYWOOD ST,Worcester,MA,01610,2003000004987,42.254551,-71.820288,220,Burglary/Breaking & Entering
2010,2010000004366,1/16/2010 23:01:00,104,BELMONT ST,Worcester,MA,01605,2003000021773,42.271942,-71.792318,120,Robbery
2010,2010000004388,1/17/2010 0:25:00,8,ELIZABETH ST,Worcester,MA,01605,2003000003054,42.271775,-71.790946,90C,Disorderly Conduct
2010,2010000004391,1/17/2010 0:26:00,16,WOODBINE ST,Worcester,MA,01603,2004000005373,42.250847,-71.827723,13A,Aggravated Assault
2010,2010000004399,1/17/2010 0:51:00,17,EKMAN ST,Worcester,MA,01607,2003000009790,42.230753,-71.795513,13B,Simple Assault
2010,2010000004405,1/17/2010 1:17:00,50,FRUIT ST,Worcester,MA,01609,2001000007454,42.268629,-71.809974,35A,Drug/Narcotic Violations
2010,2010000004408,1/17/2010 1:24:00,2,MARBLE ST,Worcester,MA,01603,2003000015733,42.247766,-71.826802,290,Destruction/Damage/Vandalism of Property
2010,2010000004411,1/17/2010 1:28:00,20,WELLS ST,Worcester,MA,01604,2003000019390,42.270912,-71.767451,90C,Disorderly Conduct
2010,2010000004411,1/17/2010 1:28:00,20,WELLS ST,Worcester,MA,01604,2003000019390,42.270912,-71.767451,90N,Resisting Arrest
2010,2010000004412,1/17/2010 1:30:00,237,CAMBRIDGE ST,Worcester,MA,01603,2002000001029,42.243606,-71.820461,120,Robbery
2010,2010000004415,1/17/2010 1:36:00,50,CAMBRIDGE ST,Worcester,MA,01603,2003000005327,42.243002,-71.829749,120,Robbery
2010,2010000004420,1/17/2010 1:54:00,97,WATER ST,Worcester,MA,01604,2003000005553,42.256121,-71.795949,13B,Simple Assault
2010,2010000004438,1/17/2010 2:35:00,28,PRESTON ST,Worcester,MA,01610,2001000000695,42.259296,-71.811602,520,Weapon Law Violation
2010,2010000004452,1/17/2010 4:10:00,2,LITCHFIELD ST,Worcester,MA,01603,2001000002206,42.244076,-71.820994,13A,Aggravated Assault
2010,2010000004462,1/17/2010 5:45:00,9,WHITNEY ST,Worcester,MA,01610,2003000019513,42.245166,-71.801501,13B,Simple Assault
2010,2010000004464,1/17/2010 6:15:00,79,LEDGE CREST DR,Worcester,MA,01603,2008000001261,42.2509036,-71.8620939,290,Destruction/Damage/Vandalism of Property
2010,2010000004465,1/17/2010 6:37:00,263,GRAFTON ST,Worcester,MA,01604,2003000001495,42.257605,-71.789131,240,Motor Vehicle Theft
2010,2010000004469,1/17/2010 8:12:00,1107,PLEASANT ST,Worcester,MA,01602,2003000007094,42.278511,-71.852716,220,Burglary/Breaking & Entering
2010,2010000004492,1/17/2010 10:27:00,22,LOXWOOD ST,Worcester,MA,01604,2006000001402,42.245465,-71.789095,23H,All Other Thefts
2010,2010000004493,1/17/2010 10:33:00,20,PAINE ST,Worcester,MA,01605,2003000010427,42.278815,-71.794888,290,Destruction/Damage/Vandalism of Property
2010,2010000004497,1/17/2010 10:53:00,15,MASON ST,Worcester,MA,01609,2003000018045,42.261906,-71.817643,290,Destruction/Damage/Vandalism of Property
2010,2010000004502,1/17/2010 11:22:00,51,LAKEWOOD ST,Worcester,MA,01603,2003000009116,42.246569,-71.83706,23H,All Other Thefts
2010,2010000004509,1/17/2010 11:52:00,107,WATER ST,Worcester,MA,01604,2005000009367,42.25598,-71.795918,23H,All Other Thefts
2010,2010000004516,1/17/2010 12:18:00,61,FRUIT ST,Worcester,MA,01609,2003000011824,42.270142,-71.810261,240,Motor Vehicle Theft
2010,2010000004520,1/17/2010 12:40:00,26,STONELAND RD,Worcester,MA,01603,2003000026834,42.245303,-71.826634,13B,Simple Assault
2010,2010000004522,1/17/2010 12:54:00,64,IRVING ST,Worcester,MA,01609,2003000000080,42.259961,-71.806964,26C,Impersonation
2010,2010000004525,1/17/2010 12:55:00,766,MAIN ST,Worcester,MA,01610,2003000000353,42.256707,-71.810207,120,Robbery
2010,2010000004527,1/17/2010 13:03:00,200,VERNON ST,Worcester,MA,01610,2002000001008,42.2405037,-71.7978879,23D,Theft from Building
2010,2010000004527,1/17/2010 13:03:00,200,VERNON ST,Worcester,MA,01610,2002000001008,42.2405037,-71.7978879,26B,Credit Card/Automatic Teller Fraud
2010,2010000004541,1/17/2010 13:52:00,663,CAMBRIDGE ST,Worcester,MA,01610,2003000015434,42.245555,-71.804092,90J,Trespass of Real Property
2010,2010000004544,1/17/2010 14:02:00,50,FOSTER ST,Worcester,MA,01608,2001000002718,42.26436,-71.798487,23D,Theft from Building
2010,2010000004556,1/17/2010 15:05:00,410,LAKE AV,Worcester,MA,01604,2006000004834,42.249418,-71.750532,120,Robbery
2010,2010000004557,1/17/2010 15:13:00,29,SUNDERLAND RD,Worcester,MA,01604,2003000002979,42.247373,-71.772605,23H,All Other Thefts
2010,2010000004579,1/17/2010 16:40:00,50,FRANKLIN ST,Worcester,MA,01608,2001000008160,42.261247,-71.801645,13A,Aggravated Assault
2010,2010000004580,1/17/2010 16:41:00,29,ORAN ST,Worcester,MA,01605,2004000001706,42.288862,-71.7887,23H,All Other Thefts
2010,2010000004589,1/17/2010 17:33:00,56,OUTLOOK DR,Worcester,MA,01602,2003000002424,42.257779,-71.852305,13C,Assault - Intimidation
2010,2010000004596,1/17/2010 18:04:00,5,LYON ST,Worcester,MA,01604,2004000000138,42.265082,-71.785848,13A,Aggravated Assault
2010,2010000004599,1/17/2010 10:00:00,49,MASON ST,Worcester,MA,01610,2003000013034,42.258572,-71.819333,220,Burglary/Breaking & Entering
2010,2010000004690,1/18/2010 2:56:00,144,STAFFORD ST,Worcester,MA,01603,2002000000766,42.237712,-71.847125,13B,Simple Assault
2010,2010000004690,1/18/2010 2:56:00,144,STAFFORD ST,Worcester,MA,01603,2002000000766,42.237712,-71.847125,290,Destruction/Damage/Vandalism of Property
2010,2010000004713,1/18/2010 6:05:00,39,BARCLAY ST,Worcester,MA,01604,2003000004223,42.253418,-71.788771,13A,Aggravated Assault
2010,2010000004714,1/18/2010 6:12:00,10,HEMANS ST,Worcester,MA,01605,2001000002993,42.28481,-71.803192,240,Motor Vehicle Theft
2010,2010000004721,1/18/2010 7:45:00,638,SOUTHBRIDGE ST,Worcester,MA,01610,2003000006001,42.244703,-71.81014,220,Burglary/Breaking & Entering
2010,2010000004781,1/18/2010 12:44:00,21,FREELAND ST,Worcester,MA,01603,2003000020917,42.24649,-71.824801,26B,Credit Card/Automatic Teller Fraud
2010,2010000004782,1/18/2010 12:49:00,34,PURITAN AV,Worcester,MA,01604,2003000012894,42.253181,-71.777196,13B,Simple Assault
2010,2010000004785,1/18/2010 13:01:00,14,ORTON ST,Worcester,MA,01604,2003000014960,42.251612,-71.75782,23H,All Other Thefts
2010,2010000004786,1/18/2010 13:11:00,39,GREAT BROOK VALLEY A,Worcester,MA,01605,2003000002410,42.303653,-71.76552,220,Burglary/Breaking & Entering
2010,2010000004791,1/18/2010 13:37:00,65,JAMES ST,Worcester,MA,01603,2003000001751,42.232612,-71.849125,250,Counterfeiting/Forgery
2010,2010000004808,1/18/2010 14:55:00,68,STAFFORD ST,Worcester,MA,01603,2001000007766,42.240659,-71.843258,23C,Shoplifting
2010,2010000004815,1/18/2010 15:20:00,395,GRAFTON ST,Worcester,MA,01604,2002000000693,42.254147,-71.783423,23F,Theft from Motor Vehicle
2010,2010000004821,1/18/2010 15:26:00,100,HAMILTON ST,Worcester,MA,01604,2001000003723,42.256096,-71.779565,240,Motor Vehicle Theft
2010,2010000004826,1/18/2010 15:46:00,71,PENN AV,Worcester,MA,01604,2004000012894,42.254543,-71.790002,220,Burglary/Breaking & Entering
2010,2010000004830,1/18/2010 16:03:00,8,CARLETON ST,Worcester,MA,01603,2003000000694,42.236588,-71.84515,23H,All Other Thefts
2010,2010000004840,1/18/2010 16:34:00,202,CONSTITUTION AV,Worcester,MA,01605,2003000013873,42.307954,-71.771858,13A,Aggravated Assault
2010,2010000004846,1/18/2010 16:49:00,399,SOUTHBRIDGE ST,Worcester,MA,01608,2001000000207,42.2514153,-71.8090455,23C,Shoplifting
2010,2010000004876,1/18/2010 19:25:00,50,SOUTHWEST CUTOFF,Worcester,MA,01604,2002000000435,42.239856,-71.747103,23C,Shoplifting
2010,2010000004890,1/17/2010 20:30:00,22,CRESCENT ST,Worcester,MA,01605,2003000000517,42.277589,-71.796468,220,Burglary/Breaking & Entering
2010,2010000004891,1/18/2010 20:20:00,590,MAIN ST,Worcester,MA,01608,2003000002292,42.260271,-71.804398,13A,Aggravated Assault
2010,2010000004913,1/18/2010 22:35:00,40,WEBSTER ST,Worcester,MA,01603,2002000000547,42.244111,-71.833017,13A,Aggravated Assault
2010,2010000004921,1/18/2010 23:01:00,3,MEADE ST,Worcester,MA,01610,2003000029460,42.253101,-71.801506,100,Kidnapping/Abduction
2010,2010000004921,1/18/2010 23:01:00,3,MEADE ST,Worcester,MA,01610,2003000029460,42.253101,-71.801506,11A,Forcible Rape
2010,2010000004923,1/18/2010 23:29:00,86,SEYMOUR ST,Worcester,MA,01610,2003000013007,42.248865,-71.795289,220,Burglary/Breaking & Entering
2010,2010000004928,1/18/2010 23:59:00,25,CHARLTON ST,Worcester,MA,01608,2003000012843,42.257104,-71.806466,120,Robbery
2010,2010000004936,1/19/2010 0:50:00,54,RODNEY ST,Worcester,MA,01605,2003000015821,42.274658,-71.787161,13B,Simple Assault
2010,2010000004938,1/19/2010 1:16:00,1028,MAIN ST,Worcester,MA,01603,2001000004746,42.24666,-71.828849,520,Weapon Law Violation
2010,2010000004938,1/19/2010 1:16:00,1028,MAIN ST,Worcester,MA,01603,2001000004746,42.24666,-71.828849,120,Robbery
2010,2010000004938,1/19/2010 1:16:00,1028,MAIN ST,Worcester,MA,01603,2001000004746,42.24666,-71.828849,90J,Trespass of Real Property
2010,2010000004951,1/19/2010 4:10:00,324,HIGHLAND ST,Worcester,MA,01609,2003000017864,42.270235,-71.823045,13C,Assault - Intimidation
2010,2010000004951,1/19/2010 4:10:00,324,HIGHLAND ST,Worcester,MA,01609,2003000017864,42.270235,-71.823045,90C,Disorderly Conduct
2010,2010000004953,1/19/2010 4:31:00,872,W BOYLSTON ST,Worcester,MA,01606,2003000000929,42.323533,-71.79339,120,Robbery
2010,2010000004965,1/19/2010 6:58:00,29,WILLIAM ST,Worcester,MA,01609,2003000005365,42.267271,-71.806877,240,Motor Vehicle Theft
2010,2010000004988,1/19/2010 8:15:00,91,MAY ST,WORCESTER,MA,,,,,23G,Theft of Motor Vehicle Parts
2010,2010000004995,1/18/2010 18:00:00,145,CAMBRIDGE ST,Worcester,MA,01603,2003000008432,42.24376,-71.824913,23G,Theft of Motor Vehicle Parts
2010,2010000005007,1/17/2010 11:30:00,455,PARK AV,Worcester,MA,01603,2004000005383,42.2545888,-71.8254925,23G,Theft of Motor Vehicle Parts
2010,2010000005008,1/18/2010 22:00:00,12,LORING ST,Worcester,MA,01606,2003000014213,42.292959,-71.806185,23F,Theft from Motor Vehicle
2010,2010000005019,1/19/2010 9:42:00,97,WATER ST,Worcester,MA,01604,2003000005553,42.256121,-71.795949,23D,Theft from Building
2010,2010000005024,1/19/2010 9:59:00,49,WELLINGTON ST,Worcester,MA,01610,2003000004313,42.259585,-71.80898,13A,Aggravated Assault
2010,2010000005025,1/18/2010 16:00:00,100,TOWER ST,Worcester,MA,01606,2003000009620,42.295674,-71.805863,23F,Theft from Motor Vehicle
2010,2010000005030,1/19/2010 10:05:00,5,AYERSHIRE RD,WORCESTER,MA,,,,,23F,Theft from Motor Vehicle
2010,2010000005035,1/19/2010 10:29:00,35,CLEMENT ST,Worcester,MA,01603,2001000002918,42.249376,-71.827181,220,Burglary/Breaking & Entering
2010,2010000005040,1/19/2010 10:52:00,16,LOVELL ST,Worcester,MA,01603,2006000003049,42.250412,-71.831976,26C,Impersonation
2010,2010000005041,1/19/2010 10:56:00,12,BOURNE ST,Worcester,MA,01606,2003000002189,42.302141,-71.798431,13B,Simple Assault
2010,2010000005047,1/19/2010 11:16:00,30,COLLINS ST,Worcester,MA,01606,2003000019931,42.321837,-71.790913,220,Burglary/Breaking & Entering
2010,2010000005058,1/16/2010 1:00:00,181,LAKE AV,WORCESTER,MA,01604,2003000016315,42.267479,-71.755386,290,Destruction/Damage/Vandalism of Property
2010,2010000005059,1/19/2010 11:53:00,7,NEPONSET ST,Worcester,MA,01606,2001000008048,42.299748,-71.802286,23C,Shoplifting
2010,2010000005063,1/18/2010 21:00:00,4,LEBANON ST,Worcester,MA,01603,2003000017736,42.235775,-71.847321,290,Destruction/Damage/Vandalism of Property
2010,2010000005072,1/19/2010 12:44:00,371,PARK AV,Worcester,MA,01610,2001000003381,42.25868,-71.822185,23F,Theft from Motor Vehicle
2010,2010000005073,1/19/2010 12:51:00,24,KILBY ST,Worcester,MA,01610,2003000009573,0,0,290,Destruction/Damage/Vandalism of Property
2010,2010000005084,1/19/2010 13:39:00,102,SHORE DR,Worcester,MA,01605,2005000011300,42.304136,-71.810879,13C,Assault - Intimidation
2010,2010000005086,1/19/2010 13:57:00,65,LAKE AV,Worcester,MA,01604,2003000000493,42.271345,-71.758618,23H,All Other Thefts
2010,2010000005087,1/19/2010 13:58:00,500,GRAFTON ST,Worcester,MA,01604,2001000009305,42.250422,-71.779667,23D,Theft from Building
2010,2010000005088,1/15/2010 21:00:00,401,PARK AV,Worcester,MA,01610,2003000023031,42.25728,-71.822286,23F,Theft from Motor Vehicle
2010,2010000005089,1/19/2010 14:02:00,276,GRAFTON ST,Worcester,MA,01604,2003000006022,42.256055,-71.788157,23D,Theft from Building
2010,2010000005092,1/19/2010 14:10:00,241,GROVE ST,Worcester,MA,01605,2003000009960,42.281061,-71.805554,240,Motor Vehicle Theft
2010,2010000005096,1/19/2010 14:28:00,93,WILDWOOD AV,Worcester,MA,01603,2003000000512,42.245491,-71.853518,220,Burglary/Breaking & Entering
2010,2010000005096,1/19/2010 14:28:00,93,WILDWOOD AV,Worcester,MA,01603,2003000000512,42.245491,-71.853518,13A,Aggravated Assault
2010,2010000005099,1/19/2010 14:38:00,370,PLEASANT ST,WORCESTER,MA,,,,,23G,Theft of Motor Vehicle Parts
2010,2010000005099,1/19/2010 14:38:00,370,PLEASANT ST,WORCESTER,MA,,,,,280,Stolen Property Offenses
2010,2010000005103,1/19/2010 14:50:00,943,GRAFTON ST,Worcester,MA,01604,2003000006683,42.24681,-71.760438,290,Destruction/Damage/Vandalism of Property
2010,2010000005107,1/19/2010 14:57:00,11,FORBES ST,Worcester,MA,01605,2003000025852,42.279651,-71.792541,26B,Credit Card/Automatic Teller Fraud
2010,2010000005108,1/19/2010 14:59:00,260,CONSTITUTION AV,Worcester,MA,01605,2003000006276,42.308192,-71.773797,23H,All Other Thefts
2010,2010000005109,1/14/2010 12:30:00,179,BURNCOAT ST,Worcester,MA,01606,2003000001172,42.299318,-71.789516,23H,All Other Thefts
2010,2010000005116,1/19/2010 13:00:00,228,LINCOLN ST,Worcester,MA,01605,2004000009518,42.283065,-71.792176,220,Burglary/Breaking & Entering
2010,2010000005131,1/19/2010 16:38:00,340,GROVE ST,Worcester,MA,01605,2003000003759,42.284644,-71.807167,23F,Theft from Motor Vehicle
2010,2010000005136,1/19/2010 16:50:00,7,LOWELL ST,Worcester,MA,01603,2003000014285,42.24709,-71.825703,290,Destruction/Damage/Vandalism of Property
2010,2010000005142,1/19/2010 17:01:00,161,MOUNTAIN ST W,Worcester,MA,01606,2003000000140,42.326849,-71.802328,13C,Assault - Intimidation
2010,2010000005155,1/19/2010 8:30:00,370,GRAFTON ST,Worcester,MA,01604,2003000019546,42.255038,-71.784528,220,Burglary/Breaking & Entering
2010,2010000005161,1/19/2010 17:45:00,14,W BOYLSTON ST,Worcester,MA,01606,2004000006175,42.2886595,-71.8065436,23H,All Other Thefts
2010,2010000005161,1/19/2010 17:45:00,14,W BOYLSTON ST,Worcester,MA,01606,2004000006175,42.2886595,-71.8065436,250,Counterfeiting/Forgery
2010,2010000005162,1/19/2010 17:47:00,929,MAIN ST,WORCESTER,MA,01600,,,,23F,Theft from Motor Vehicle
2010,2010000005174,1/19/2010 18:16:00,125,PERRY AV,Worcester,MA,01610,2003000013374,42.245949,-71.799182,13B,Simple Assault
2010,2010000005174,1/19/2010 18:16:00,125,PERRY AV,Worcester,MA,01610,2003000013374,42.245949,-71.799182,220,Burglary/Breaking & Entering
2010,2010000005199,1/19/2010 19:13:00,7,ZOAR ST,Worcester,MA,01604,2003000023310,42.237116,-71.768794,13C,Assault - Intimidation
2010,2010000005220,1/19/2010 20:27:00,49,WELLINGTON ST,Worcester,MA,01610,2003000004313,42.259585,-71.80898,35A,Drug/Narcotic Violations
2010,2010000005221,1/19/2010 20:27:00,390,MAIN ST,Worcester,MA,01608,2001000007977,42.264367,-71.802213,26B,Credit Card/Automatic Teller Fraud
2010,2010000005221,1/19/2010 20:27:00,390,MAIN ST,Worcester,MA,01608,2001000007977,42.264367,-71.802213,23H,All Other Thefts
2010,2010000005223,1/19/2010 20:36:00,1,ROBIN RD,Worcester,MA,01604,2001000003463,42.261874,-71.778792,23H,All Other Thefts
2010,2010000005223,1/19/2010 20:36:00,1,ROBIN RD,Worcester,MA,01604,2001000003463,42.261874,-71.778792,290,Destruction/Damage/Vandalism of Property
2010,2010000005223,1/19/2010 20:36:00,1,ROBIN RD,Worcester,MA,01604,2001000003463,42.261874,-71.778792,520,Weapon Law Violation
2010,2010000005223,1/19/2010 20:36:00,1,ROBIN RD,Worcester,MA,01604,2001000003463,42.261874,-71.778792,90C,Disorderly Conduct
2010,2010000005223,1/19/2010 20:36:00,1,ROBIN RD,Worcester,MA,01604,2001000003463,42.261874,-71.778792,90N,Resisting Arrest
2010,2010000005223,1/19/2010 20:36:00,1,ROBIN RD,Worcester,MA,01604,2001000003463,42.261874,-71.778792,90J,Trespass of Real Property
2010,2010000005223,1/19/2010 20:36:00,1,ROBIN RD,Worcester,MA,01604,2001000003463,42.261874,-71.778792,90Z,All Other Offenses
2010,2010000005232,1/19/2010 21:16:00,20,WESTFIELD ST,Worcester,MA,01602,2003000002586,42.256627,-71.825246,13B,Simple Assault
2010,2010000005237,1/19/2010 21:34:00,160,FREMONT ST,Worcester,MA,01603,2003000004202,42.242208,-71.823801,220,Burglary/Breaking & Entering
2010,2010000005251,1/19/2010 23:45:00,51,FOURTH ST,Worcester,MA,01602,2005000006354,42.255733,-71.851591,290,Destruction/Damage/Vandalism of Property
2010,2010000005279,1/20/2010 6:08:00,99,GOLD STAR BLVD,Worcester,MA,01606,2003000003724,42.290617,-71.803663,120,Robbery
2010,2010000005281,1/20/2010 6:24:00,866,MAIN ST,Worcester,MA,01610,2002000000580,42.254007,-71.816173,13B,Simple Assault
2010,2010000005281,1/20/2010 6:24:00,866,MAIN ST,Worcester,MA,01610,2002000000580,42.254007,-71.816173,23H,All Other Thefts
2010,2010000005297,1/20/2010 8:22:00,39,PROVIDENCE ST,Worcester,MA,01604,2001000001094,42.256387,-71.792868,240,Motor Vehicle Theft
2010,2010000005299,1/20/2010 8:43:00,67,OUTLOOK DR,Worcester,MA,01602,2001000001864,42.257594,-71.852974,23H,All Other Thefts
2010,2010000005299,1/20/2010 8:43:00,67,OUTLOOK DR,Worcester,MA,01602,2001000001864,42.257594,-71.852974,26B,Credit Card/Automatic Teller Fraud
2010,2010000005311,1/20/2010 10:05:00,13,FLAGG ST,Worcester,MA,01602,2004000000008,42.278405,-71.837668,290,Destruction/Damage/Vandalism of Property
2010,2010000005312,1/20/2010 10:09:00,299,HIGHLAND ST,WORCESTER,MA,01609,2002000000778,42.270049,-71.819904,13C,Assault - Intimidation
2010,2010000005315,1/20/2010 10:32:00,420,BELMONT ST,Worcester,MA,01605,2003000006218,42.273784,-71.759717,23E,Theft from Coin-operated Machine
2010,2010000005318,1/20/2010 10:34:00,104,HIGHLAND ST,Worcester,MA,01609,2003000002291,42.271316,-71.806507,220,Burglary/Breaking & Entering
2010,2010000005318,1/20/2010 10:34:00,104,HIGHLAND ST,Worcester,MA,01609,2003000002291,42.271316,-71.806507,240,Motor Vehicle Theft
2010,2010000005327,1/20/2010 5:30:00,104,HIGHLAND ST,Worcester,MA,01609,2003000002291,42.271316,-71.806507,220,Burglary/Breaking & Entering
2010,2010000005336,1/20/2010 11:57:00,62,STANTON ST,Worcester,MA,01605,2003000027780,42.274778,-71.784525,23H,All Other Thefts
2010,2010000005337,1/20/2010 12:03:00,371,PARK AVE,WORCESTER,MA,,,,,23F,Theft from Motor Vehicle
2010,2010000005338,1/20/2010 12:03:00,784,MAIN ST,Worcester,MA,01610,2001000007275,42.256196,-71.811166,35A,Drug/Narcotic Violations
2010,2010000005343,1/20/2010 12:25:00,83,PURCHASE ST,Worcester,MA,01606,2004000007353,42.311357,-71.787156,23H,All Other Thefts
2010,2010000005346,1/20/2010 12:43:00,28,LAKE AV,WORCESTER,MA,01604,2003000001269,42.272788,-71.759319,35A,Drug/Narcotic Violations
2010,2010000005350,1/20/2010 12:52:00,5,TOWNSEND ST,Worcester,MA,01609,2003000006226,42.264379,-71.815248,26C,Impersonation
2010,2010000005351,1/20/2010 12:59:00,6,WACHUSETT ST,Worcester,MA,01609,2001000009252,42.268774,-71.803703,13C,Assault - Intimidation
2010,2010000005355,1/20/2010 13:13:00,44,PLANTATION ST,Worcester,MA,01604,2005000000190,42.253839,-71.781663,220,Burglary/Breaking & Entering
2010,2010000005363,1/20/2010 13:44:00,15,GATES ST,Worcester,MA,01610,2003000003163,42.249199,-71.821845,26C,Impersonation
2010,2010000005369,1/20/2010 14:09:00,79,HAMILTON ST,Worcester,MA,01604,2003000007111,42.256359,-71.780838,13B,Simple Assault
2010,2010000005386,1/20/2010 15:06:00,130,GOLD STAR BLVD,Worcester,MA,01606,2003000001588,42.291946,-71.800702,23D,Theft from Building
2010,2010000005386,1/20/2010 15:06:00,130,GOLD STAR BLVD,Worcester,MA,01606,2003000001588,42.291946,-71.800702,13A,Aggravated Assault
2010,2010000005396,1/20/2010 16:10:00,4,MARSH AV,Worcester,MA,01605,2004000009342,42.291688,-71.779949,290,Destruction/Damage/Vandalism of Property
2010,2010000005412,1/20/2010 17:39:00,12,WINFIELD ST,Worcester,MA,01609,,,,120,Robbery
2010,2010000005413,1/20/2010 17:44:00,25,HAYNES ST,Worcester,MA,01603,2003000006363,42.244599,-71.828587,13B,Simple Assault
2010,2010000005416,1/20/2010 17:50:00,279,LINCOLN ST,Worcester,MA,01605,2003000004043,42.285409,-71.791241,23H,All Other Thefts
2010,2010000005416,1/20/2010 17:50:00,279,LINCOLN ST,Worcester,MA,01605,2003000004043,42.285409,-71.791241,26B,Credit Card/Automatic Teller Fraud
2010,2010000005419,1/20/2010 15:00:00,2,ACCOMMODATION ST,Worcester,MA,01607,2003000015260,42.2386297,-71.7968533,220,Burglary/Breaking & Entering
2010,2010000005421,1/20/2010 17:59:00,2,MAIN ST,Worcester,MA,01608,2001000007821,42.270729,-71.801005,23F,Theft from Motor Vehicle
2010,2010000005430,1/20/2010 18:39:00,63,OUTLOOK DR,Worcester,MA,01602,2003000008465,42.257586,-71.852662,13B,Simple Assault
2010,2010000005433,1/20/2010 18:58:00,11,MCKEON RD,Worcester,MA,01610,2003000009853,42.243595,-71.808935,23F,Theft from Motor Vehicle
2010,2010000005434,1/20/2010 19:22:00,24,PRENTICE ST,Worcester,MA,01604,2003000028985,42.273074,-71.774998,26C,Impersonation
2010,2010000005440,1/20/2010 19:40:00,288,MILL ST,Worcester,MA,01602,2003000001035,42.256438,-71.847405,23F,Theft from Motor Vehicle
2010,2010000005444,1/20/2010 7:00:00,7,W LAKE ST,Worcester,MA,01603,2001000003857,42.245101,-71.837705,220,Burglary/Breaking & Entering
2010,2010000005455,1/20/2010 20:40:00,12,BOURNE ST,Worcester,MA,01606,2003000002189,42.302141,-71.798431,290,Destruction/Damage/Vandalism of Property
2010,2010000005456,1/20/2010 20:45:00,15,SHANNON ST,Worcester,MA,01604,2001000007431,42.250704,-71.789237,13A,Aggravated Assault
2010,2010000005457,1/20/2010 20:44:00,122,GRAND ST,Worcester,MA,01610,2003000001455,42.247042,-71.816313,35A,Drug/Narcotic Violations
2010,2010000005460,1/20/2010 20:59:00,88,WEBSTER ST,Worcester,MA,01603,2003000016535,42.241162,-71.833012,220,Burglary/Breaking & Entering
2010,2010000005463,1/20/2010 21:10:00,50,SOUTHWEST CUTOFF,Worcester,MA,01604,2002000000435,42.239856,-71.747103,13A,Aggravated Assault
2010,2010000005483,1/20/2010 22:52:00,2,MARBLE ST,Worcester,MA,01603,2003000015733,42.247766,-71.826802,220,Burglary/Breaking & Entering
2010,2010000005487,1/20/2010 23:08:00,49,PLEASANT VALLEY DR,Worcester,MA,01605,2003000000276,42.295422,-71.778186,220,Burglary/Breaking & Entering
2010,2010000005497,1/20/2010 21:30:00,32,SUFFIELD ST,Worcester,MA,01610,2004000001807,42.249784,-71.797154,220,Burglary/Breaking & Entering
2010,2010000005508,1/21/2010 1:41:00,1050,MAIN ST,Worcester,MA,01603,2001000008018,42.245958,-71.831716,13B,Simple Assault
2010,2010000005521,1/21/2010 3:18:00,845,MAIN ST,Worcester,MA,01610,2002000000475,42.254282,-71.814674,120,Robbery
2010,2010000005526,1/21/2010 4:17:00,1073,PLEASANT ST,Worcester,MA,01602,2002000000905,42.278378,-71.849846,120,Robbery
2010,2010000005527,1/21/2010 4:22:00,48,MILLBURY ST,Worcester,MA,01610,2003000010954,42.253726,-71.798464,290,Destruction/Damage/Vandalism of Property
2010,2010000005530,1/21/2010 4:50:00,5,MAY ST,Worcester,MA,01610,2001000007779,42.254818,-71.815269,220,Burglary/Breaking & Entering
2010,2010000005530,1/21/2010 4:50:00,5,MAY ST,Worcester,MA,01610,2001000007779,42.254818,-71.815269,13A,Aggravated Assault
2010,2010000005536,1/21/2010 5:58:00,20,BOARDMAN ST,Worcester,MA,01606,2003000012978,42.294156,-71.805103,520,Weapon Law Violation
2010,2010000005536,1/21/2010 5:58:00,20,BOARDMAN ST,Worcester,MA,01606,2003000012978,42.294156,-71.805103,35A,Drug/Narcotic Violations
2010,2010000005562,1/21/2010 8:20:00,7,CANTERBURY ST,Worcester,MA,01603,2003000010568,42.250887,-71.8105099,23H,All Other Thefts
2010,2010000005568,1/21/2010 8:51:00,108,BELMONT ST,Worcester,MA,01605,2003000022039,42.272084,-71.792252,290,Destruction/Damage/Vandalism of Property
2010,2010000005569,1/20/2010 20:30:00,23,MONTAGUE ST,Worcester,MA,01603,2001000004841,42.245731,-71.84048,23F,Theft from Motor Vehicle
2010,2010000005571,1/21/2010 9:05:00,33,MILLBROOK ST,Worcester,MA,01606,2003000007289,42.289464,-71.803166,13C,Assault - Intimidation
2010,2010000005578,1/21/2010 10:00:00,10,MONTROSE ST,Worcester,MA,01610,2002000001003,42.24658,-71.79669,280,Stolen Property Offenses
2010,2010000005583,1/15/2010 23:30:00,1,EDEN ST,Worcester,MA,01609,2003000004524,42.267326,-71.801609,23F,Theft from Motor Vehicle
2010,2010000005594,1/21/2010 11:02:00,1,CANTERBURY ST,Worcester,MA,01603,2001000003478,42.2514467,-71.8102402,11A,Forcible Rape
2010,2010000005598,1/21/2010 11:29:00,18,FAIRHAVEN RD,Worcester,MA,01606,2003000014155,42.308891,-71.797272,13C,Assault - Intimidation
2010,2010000005599,1/21/2010 11:28:00,135,BURNCOAT ST,Worcester,MA,01606,2003000000454,42.29725,-71.789619,90K,Incorrigible
2010,2010000005620,1/21/2010 12:48:00,187,SOUTHWEST CUTOFF,Worcester,MA,01604,2003000013162,42.229687,-71.75397,23D,Theft from Building
2010,2010000005620,1/21/2010 12:48:00,187,SOUTHWEST CUTOFF,Worcester,MA,01604,2003000013162,42.229687,-71.75397,26B,Credit Card/Automatic Teller Fraud
2010,2010000005628,1/21/2010 13:21:00,125,MILLBURY ST,Worcester,MA,01610,2004000009571,42.252083,-71.799499,35A,Drug/Narcotic Violations
2010,2010000005629,1/21/2010 13:22:00,69,CUTLER ST,Worcester,MA,01604,2003000006544,42.253288,-71.7865,90F,"Family Offenses, Nonviolent"
2010,2010000005643,1/20/2010 23:00:00,6,BAKER ST,Worcester,MA,01603,2003000014967,42.246084,-71.837689,23G,Theft of Motor Vehicle Parts
2010,2010000005649,1/21/2010 14:22:00,7,NEPONSET ST,Worcester,MA,01606,2001000008048,42.299748,-71.802286,23D,Theft from Building
2010,2010000005673,1/21/2010 15:53:00,10,MONTROSE ST,Worcester,MA,01610,2002000001003,42.24658,-71.79669,220,Burglary/Breaking & Entering
2010,2010000005685,1/21/2010 16:30:00,20,WILLIAM ST,Worcester,MA,01609,2006000005256,42.26716,-71.805598,220,Burglary/Breaking & Entering
2010,2010000005691,1/21/2010 16:43:00,2,MAIN ST,Worcester,MA,01608,2001000007821,42.270729,-71.801005,240,Motor Vehicle Theft
2010,2010000005716,1/21/2010 17:47:00,36,GOLDTHWAITE RD,Worcester,MA,01605,2005000011368,42.295237,-71.779396,90F,"Family Offenses, Nonviolent"
2010,2010000005719,1/21/2010 17:55:00,69,NORFOLK ST,Worcester,MA,01604,2002000000626,42.262193,-71.784057,26C,Impersonation
2010,2010000005727,1/21/2010 18:13:00,41,PLEASANT VALLEY DR,Worcester,MA,01605,2003000004446,42.295422,-71.778186,13A,Aggravated Assault
2010,2010000005733,1/21/2010 18:28:00,167,CONSTITUTION AV,Worcester,MA,01605,2003000015360,42.307577,-71.771367,290,Destruction/Damage/Vandalism of Property
2010,2010000005738,1/21/2010 18:40:00,154,CHINO AV,Worcester,MA,01605,2003000014081,42.305107,-71.773005,13C,Assault - Intimidation
2010,2010000005753,1/21/2010 19:32:00,664,MAIN ST,WORCESTER,MA,01608,2004000007162,42.25889,-71.80618,100,Kidnapping/Abduction
2010,2010000005757,1/21/2010 19:42:00,36,CHANDLER ST,Worcester,MA,01609,2001000005914,42.260142,-71.806724,35A,Drug/Narcotic Violations
2010,2010000005762,1/21/2010 20:25:00,830,MAIN ST,Worcester,MA,01610,2001000005347,42.255242,-71.813349,35A,Drug/Narcotic Violations
2010,2010000005771,1/21/2010 21:14:00,486,LINCOLN ST,Worcester,MA,01605,2003000005454,42.294312,-71.775722,120,Robbery
2010,2010000005789,1/21/2010 22:12:00,318,PARK AV,Worcester,MA,01609,2003000010541,42.261144,-71.820914,120,Robbery
2010,2010000005793,1/21/2010 22:23:00,392,CHANDLER ST,Worcester,MA,01602,2003000020116,42.263214,-71.831788,23C,Shoplifting
2010,2010000005821,1/22/2010 1:22:00,70,WINTER ST,Worcester,MA,01604,2003000000789,42.258871,-71.794756,90C,Disorderly Conduct
2010,2010000005828,1/22/2010 1:56:00,801,W BOYLSTON ST,Worcester,MA,01606,2003000005958,42.322325,-71.794363,13C,Assault - Intimidation
2010,2010000005830,1/22/2010 2:12:00,50,MILL ST,Worcester,MA,01603,2002000000341,42.247141,-71.832136,220,Burglary/Breaking & Entering
2010,2010000005836,1/22/2010 2:46:00,132,TACOMA ST,Worcester,MA,01605,2003000011009,42.306223,-71.770308,90J,Trespass of Real Property
2010,2010000005838,1/22/2010 3:08:00,6,WACHUSETT ST,Worcester,MA,01609,2001000009252,42.268774,-71.803703,13C,Assault - Intimidation
2010,2010000005841,1/22/2010 3:20:00,85,CHATHAM ST,Worcester,MA,01609,2003000001257,42.262365,-71.810043,90C,Disorderly Conduct
2010,2010000005841,1/22/2010 3:20:00,85,CHATHAM ST,Worcester,MA,01609,2003000001257,42.262365,-71.810043,520,Weapon Law Violation
2010,2010000005841,1/22/2010 3:20:00,85,CHATHAM ST,Worcester,MA,01609,2003000001257,42.262365,-71.810043,13A,Aggravated Assault
2010,2010000005841,1/22/2010 3:20:00,85,CHATHAM ST,Worcester,MA,01609,2003000001257,42.262365,-71.810043,90N,Resisting Arrest
2010,2010000005842,1/22/2010 3:27:00,38,CEDAR ST,Worcester,MA,01609,2003000005334,42.266938,-71.809818,220,Burglary/Breaking & Entering
2010,2010000005850,1/22/2010 4:58:00,121,JUNE ST,Worcester,MA,01602,2003000006278,42.264358,-71.833623,120,Robbery
2010,2010000005852,1/22/2010 5:21:00,600,MAIN ST,Worcester,MA,01608,2001000000699,42.260283,-71.804651,13A,Aggravated Assault
2010,2010000005860,1/22/2010 7:10:00,43,BAY STATE RD,Worcester,MA,01606,2003000018032,42.30481,-71.786244,290,Destruction/Damage/Vandalism of Property
2010,2010000005869,1/22/2010 7:26:00,275,PLEASANT ST,Worcester,MA,01609,2001000009201,42.264398,-71.811637,23G,Theft of Motor Vehicle Parts
2010,2010000005869,1/22/2010 7:26:00,275,PLEASANT ST,Worcester,MA,01609,2001000009201,42.264398,-71.811637,240,Motor Vehicle Theft
2010,2010000005872,1/22/2010 7:39:00,4,LUND ST,Worcester,MA,01607,2004000002406,42.241228,-71.79421,240,Motor Vehicle Theft
2010,2010000005874,1/22/2010 8:13:00,104,CHANDLER ST,Worcester,MA,01605,,,,23G,Theft of Motor Vehicle Parts
2010,2010000005877,1/22/2010 8:17:00,393,CHANDLER ST,Worcester,MA,01602,2003000004070,42.263475,-71.831786,120,Robbery
2010,2010000005881,1/22/2010 8:21:00,119,JUNE ST,Worcester,MA,01602,2003000017333,42.264354,-71.833733,120,Robbery
2010,2010000005883,1/22/2010 8:28:00,2,RICHMOND AV,Worcester,MA,01602,2003000003470,42.273426,-71.830832,120,Robbery
2010,2010000005885,1/22/2010 8:33:00,520,W BOYLSTON ST,Worcester,MA,01606,2003000002063,42.309657,-71.798374,23H,All Other Thefts
2010,2010000005889,1/22/2010 8:48:00,58,OLGA AV,Worcester,MA,01605,2003000008253,42.274659,-71.783882,240,Motor Vehicle Theft
2010,2010000005910,1/21/2010 11:45:00,179,BURNCOAT ST,Worcester,MA,01606,2003000001172,42.299318,-71.789516,13B,Simple Assault
2010,2010000005917,1/22/2010 10:16:00,56,HOWLAND TER,Worcester,MA,01602,2010000000196,,,23G,Theft of Motor Vehicle Parts
2010,2010000005925,1/22/2010 10:48:00,674,MAIN ST,Worcester,MA,01608,2004000006231,42.258703,-71.806491,90C,Disorderly Conduct
2010,2010000005925,1/22/2010 10:48:00,674,MAIN ST,Worcester,MA,01608,2004000006231,42.258703,-71.806491,90J,Trespass of Real Property
